name	address	postcode	tel	website	latitude	longitude
American Box	736 Mission St	94103	(415) 474-3474	http://www.thecjm.org	37.78568	-122.403184
Aroma Coffee House	4675 Mission St	94112	(415) 333-6898		37.723519	-122.435673
Alamo Square Seafood Grill	803 Fillmore St	94117	(415) 440-2828	http://alamosquareseafoodgrill.com	37.776844	-122.431722
Alioto's Waterside Cafe	2829 Taylor St	94133	(415) 359-1200	http://www.aliotoswatersidecafe.com	37.808745	-122.415915
All You Knead	1466 Haight St	94117	(415) 552-4550		37.770141	-122.446432
Auntie Anne's	845 Market St	94103	(415) 371-1098	http://www.auntieannes.com	37.784392	-122.406367
Allstar Donuts	901 Clement St	94118	(415) 221-9838		37.782613	-122.468859
Axis Cafe	1201 8th St	94107	(415) 437-2947	http://www.axis-cafe.com	37.766631	-122.399373
Absinthe Private Dining	388 Hayes St	94102	(415) 551-1453	http://www.absinthe.com/privatedining.html	37.776856	-122.422659
Andalu	3198 16th St	94103	(415) 621-2211	http://www.andalusf.com	37.764896	-122.423893
Aunt Fannys Hot Pretzels	39 Pier	94133	(415) 986-0706		37.808859	-122.409964
Aroma Tea Shop	302 6th Ave	94118	(415) 668-3788	http://www.aromateashop.com	37.782813	-122.46438
Alfred's Steakhouse	659 Merchant St	94111	(415) 781-7058	http://www.alfredssteakhouse.com	37.794853	-122.404301
Amasia Hide's Sushi Bar	149 Noe St	94114	(415) 861-7000	http://www.amasiahidesushi.com	37.766735	-122.433179
Aato	3910 Lombard St	94123	(415) 292-2368	http://www.aatosf.com	37.798475	-122.447293
A1 Ocean Cafe	380 Bush St	94104	(415) 398-3322		37.790877	-122.403747
A K Meats	2346 Clement St	94121	(415) 933-6328	http://www.aksubs.net	37.782134	-122.48449
Angelina's Cafe and Catering	6000 California St	94121	(415) 221-7835	http://www.angelinascatering.com	37.784117	-122.481915
Anh Hong Restaurnt	808 Geary St	94109	(415) 885-5180	http://www.anhhong.com	37.786371	-122.416694
Anna's Teriyaki	83 9th St	94103	(415) 864-3780		37.776561	-122.415009
Atmosphere 3	447 Broadway	94133	(415) 788-4623	http://www.a3atmosphere.com	37.797868	-122.404743
All Star Tamales	United Nations Plz	94102		http://allstartamales.com	37.780298	-122.413744
Aimee, Andrew and Company	2238 Polk St	94109	(415) 447-4094		37.79747	-122.422044
Al Fanous	3170 16th St	94103	(415) 621-1539	http://alfanoosesf.com	37.76482	-122.423465
Alumni Association of San Francisco State University	1600 Holloway Ave	94132	(415) 338-1111	http://sfstategators.com	37.72523	-122.480693
A2 Cafe	450 Irwin St	94107	(415) 863-8169		37.767404	-122.399374
Andiamo	3242 Scott St	94123	(415) 440-2600		37.799666	-122.440986
Americano	8 Mission St	94105	(415) 278-3777	http://www.americanorestaurant.com	37.793625	-122.39285
Aladdin Restaurant	1300 Polk St	94109	(415) 441-2212	http://www.aladdinbailbonds.com	37.788893	-122.42025
Apartment 24	440 Broadway	94133	(415) 989-3434	http://www.apartment24sf.com	37.798187	-122.404638
Alamo Square Cafe	711 Fillmore St	94117	(415) 447-8636		37.775968	-122.431358
Avital Food Tours	3543 18th St	94110	(415) 355-4044	http://avitaltours.com	37.761588	-122.422603
Apollo Coffee	1064 Divisadero St	94115	(415) 394-0500		37.779542	-122.438588
Annie's Hot Dogs and Pretzels	50 Tea Garden Dr	94122	(415) 861-0778	http://annieshotdogsandpretzels.liveonatt.com	37.76756	-122.460534
Aurea	905 California St	94108	(415) 989-3500	http://www.aureasf.com	37.791864	-122.409512
Amici's East Coast Pizzeria	2200 Lombard St	94123	(415) 885-4500	http://www.amicis.com	37.79974	-122.437913
A La Turca	869 Geary St	94109	(415) 345-1011	http://www.alaturcasf.com	37.786133	-122.41757
Amante	570 Green St	94133	(415) 362-4400	http://www.amantesf.com	37.799666	-122.40855
Aria Korean American Snack Bar	932 Larkin St	94109	(415) 292-6914	https://www.facebook.com/AriaKoreanAmericanSnackBar	37.786528	-122.418211
AHA Coffee	198 McAllister St	94102	(415) 552-3242	http://www.ahacoffee.com	37.780895	-122.415089
Amphawa Thai Noodle House	5020 Geary Blvd	94118	(415) 387-1299	http://www.amphawathai.com	37.780695	-122.473298
Ahi Japaness Restaurant	4828 Geary Blvd	94118	(415) 379-6250		37.780879	-122.471187
Anda Piroshki	331 Cortland Ave	94110	(415) 271-9055	http://www.andapiroshki.com	37.739273	-122.418041
Asia Sf	1269 Howard St	94103	(415) 255-2742	http://www.asiasf.com	37.775305	-122.412498
Ate	995 N Point St	94109	(415) 409-6915	http://www.atesf.com	37.805192	-122.423349
Acapulco San Francisco	3137 Mission St	94110	(415) 826-1496	http://www.acapulcosf.com	37.778517	-122.418423
Amigo Cantina	434 Lombard St	94133			37.803456	-122.408885
Annie's Hot Dogs and Pretzels	Stockton St	94108	(415) 861-0778	http://annieshotdogsandpretzels.liveonatt.com	37.786638	-122.406411
All Seas	2390 Jerrold Ave	94124	(415) 206-7327	http://www.allseaswholesale.com	37.746746	-122.40334
Amoura	845 Market St	94103	(415) 357-9611		37.78433	-122.406983
April Nine Thai Kitchen	701 Randolph St	94132	(415) 585-8058	http://www.aprilninethai.com	37.714151	-122.469062
Aroma Espresso Bar	450 Sansome St	94111	(415) 982-3101	http://www.aroma.us	37.79456	-122.401154
Aunt Charlie's Lounge	133 Turk St	94102	(415) 441-2922	http://www.auntcharlieslounge.com	37.783083	-122.411295
Acme Burgerhaus	630 Ofarrell St	94109	(415) 580-7170		37.785511	-122.415073
Appam	1261 Folsom St	94103	(415) 626-2798		37.774113	-122.410894
Audio Nightclub	316 11th St	94103	(415) 481-0556	http://www.AudioSF.com	37.771404	-122.41375
Abundant Market	2794 California St	94115	(415) 929-9204	http://www.abundantmarket.com	37.788188	-122.440317
A Tarantino and Sons Poultry and Seafood	2275 Jennings St	94124	(415) 822-3366	http://www.atarantinoandsons.com	37.725916	-122.389545
Amnesia	853 Valencia St	94110	(415) 970-0012	http://www.amnesiathebar.com	37.759213	-122.421255
Antologia Vinoteca	515 Broadway	94133	(415) 274-8423	http://www.antologiasf.com	37.797916	-122.405832
Andersen Bakery	50 Post St	94104	(415) 262-0079	http://www.andersenbakery.com	37.789035	-122.403008
Andy's Chinese Cuisine	2401 Polk St	94109	(415) 922-5526	http://www.andysrestaurantsf.com	37.79927	-122.422387
Andy's Chinese Cuisine	1358 9th Ave	94122	(415) 661-1803	http://www.andysrestaurantsf.com	37.762983	-122.466149
Acme Bread Co.	1 Ferry Building	94111	(415) 288-2978	http://www.ferrybuildingmarketplace.com/acme_bread_company.php	37.795905	-122.393497
A G Ferrari Foods	468 Castro St	94114	(415) 255-6590	http://www.agferrari.com	37.761402	-122.435141
Atami Sushi Bar and Grill	1662 Lombard St	94123	(415) 614-1958		37.80092	-122.428866
Aguila De Oro Taqueria	5245 3rd St	94124	(415) 822-0307		37.730511	-122.392129
Anthony's Cookies	1417 Valencia St	94110	(415) 655-9834	http://www.anthonyscookies.com	37.750238	-122.420462
Annar	101 4th St	94103			37.784115	-122.403565
Anzu	222 Mason St	94102	(415) 394-1100	http://www.restaurantanzu.com	37.785783	-122.409316
Asa Sushi	2365 Chestnut St	94123	(415) 345-8263	http://www.eatasasushisf.com	37.799994	-122.442293
Ann's Doughnut Coffee Shop	4488 Mission St	94112	(415) 334-1761		37.726064	-122.433854
Amigo Cantina	1434 Lombard St	94123			37.801427	-122.424798
Anchor and Hope	83 Minna St	94105	(415) 501-9100	http://www.anchorandhopesf.com	37.787883	-122.398781
Andreas Bakery	4511 Mission St	94112	(415) 374-4100		37.725974	-122.433662
AfterHourz	417 Ofarrell St	94102	(415) 447-4041	http://melatandoori.com	37.785887	-122.411727
Albona Ristorante Istriano	545 Francisco St	94133	(415) 441-1040	http://www.albonarestaurant.com	37.804404	-122.414091
Andersen Bakery	1737 Post St	94115	(415) 345-1046	http://www.andersenbakery.com	37.785418	-122.430369
Arlequin to Go	384 Hayes St	94102	(415) 626-1211	http://www.arlequincafe.com	37.77699	-122.422706
Argus Lounge	3187 Mission St	94110	(415) 824-1447	http://www.arguslounge.com	37.745858	-122.419513
Alioto's	8 Fishermans Wharf	94133	(415) 673-0183	http://www.aliotos.com	37.808956	-122.416231
Alimento	507 Columbus Ave	94133	(415) 296-9463		37.799631	-122.409497
Annabelle's Bar and Bistro	54 4th St	94103	(415) 777-1200	http://www.annabelles.net	37.784967	-122.404943
Ajatea Cafe	835 Geary St	94109	(415) 928-5888	http://www.ajatea.com	37.786125	-122.417096
Andersen Bakery	665 Market St	94105	(415) 512-8160	http://www.andersenbakery.com	37.788345	-122.402715
Alex's Other Place	4528 Mission St	94112	(415) 584-5122		37.72549	-122.434292
A G Ferrari Foods	3490 California St	94118	(415) 923-4470	http://www.agferrari.com	37.786759	-122.451605
Allstar Donuts	2095 Chestnut St	94123	(415) 441-9270		37.800561	-122.437756
Arabi	101 Spear St	94105	(415) 243-8575	http://www.pacificarabic.com	37.792423	-122.393594
Alioto F Fish Co.	440 Jefferson St	94109	(415) 673-5866	http://www.crabonline.com	37.807823	-122.419278
Andersen Bakery	235 California St	94111	(415) 249-0890	http://usa.andersenbakery.com/store.html	37.793303	-122.399318
Arbys	133 Hernandez Ave	94127	(415) 731-2801		37.744721	-122.457704
Acre Cafe	1013 Torney Ave	94129	(415) 561-2273	http://www.acregourmet.com	37.800186	-122.452075
All Natural Ben and Jerrys Vermonts Finest	101 Utah St	94103	(415) 440-1100		37.767142	-122.406677
Antojitos Salvadorenos Aminta	2578 Mission St	94110	(415) 648-4737		37.755754	-122.418918
America's Cup Sports Bar	Pier 27 29	94111	(415) 371-5500	http://www.americascup.com/sportsbar	37.804925	-122.400991
Asiana	364 Ofarrell St	94102	(415) 346-1443		37.786202	-122.410666
Asmara Restaurant	1537 Ocean Ave	94112	(415) 334-7587	http://www.asmararestaurant.com	37.724234	-122.45873
Art's Cafe	747 Irving St	94122	(415) 665-7440	http://www.artscafesf.com	37.763985	-122.465871
AMC Van Ness 14	1000 Van Ness Ave	94109	(415) 674-4630	http://www.amctheatres.com	37.785083	-122.420709
Amsterdam Cafe	937 Geary St	94109	(415) 409-1111	http://www.amsterdamcafesf.com	37.78597	-122.418788
Ali Baba's Cave	799 Valencia St	94110	(415) 863-3054	http://www.menutopia.com/GetMenu.m?vendorId=15897	37.760171	-122.421387
A A Bakery and Cafe	1068 Stockton St	94108	(415) 981-0123	http://www.dragoncitybakery.com	37.795655	-122.408149
Andytown Coffee Roasters	3655 Lawton St	94122	(415) 752-9775	http://andytownsf.com	37.756721	-122.502278
All Star Cafe	550 Market St	94104	(415) 433-0533		37.789895	-122.400765
Avedano's Meat Wagon	432 Octavia St	94102	(415) 285-6328	http://www.avedanos.com	37.775996	-122.4243
Andronico's	1200 Irving St	94122	(415) 661-3220	http://www.andronicos.com	37.764146	-122.47098
Asiento	2730 21st St	94110	(415) 829-3375	http://www.asientosf.com	37.757678	-122.409319
Alegrias Food From Spain	2018 Lombard St	94123	(415) 929-8888	http://www.alegriassf.com	37.800103	-122.434821
Allison Tapioca	5301 Mission St	94112	(415) 333-3238		37.714424	-122.442688
Al-Fanoose	531 Haight St	94117	(415) 255-7820	http://alfanoose.net	37.771991	-122.430995
Al Masri Egyptian Restaurant	4031 Balboa St	94121	(415) 876-2300	http://www.almasrisfca.com	37.775407	-122.502044
Aicha	1303 Polk St	94109	(415) 345-9947	http://www.aichasf.com	37.788868	-122.420426
Arang Restaurant	1506 Fillmore St	94115	(415) 775-9095	http://sf.koreaportal.com/english/yp/18651-San-Francisco-%EC%95%84%EB%9E%91%EC%8B%9D%EB%8B%B9	37.783428	-122.432572
Allegro Romano	1701 Jones St	94109	(415) 928-4002	http://www.allegroromano.com	37.796891	-122.415306
All Star Tamales	100 Alemany Blvd	94110	(925) 252-1097		37.735636	-122.410195
Altena Restaurant	3346 Mission St	94110	(415) 647-1980		37.74321	-122.421558
Ace's	998 Sutter St	94109	(415) 673-0644	http://www.acesbarsf.com	37.788249	-122.416718
Angkor Borei Restaurant	3471 Mission St	94110	(415) 550-8417	http://www.cambodiankitchen.com	37.741316	-122.422529
Ariana Cafe	842 Geary St	94109	(415) 240-3552		37.78624	-122.417191
Azalina's	2948 Folsom St	94110	(415) 407-2038	http://www.azalinas.com	37.750101	-122.414035
An Giang	631 Larkin St	94109	(415) 922-1707		37.778517	-122.418423
Ashoka	2048 Chestnut St	94123	(415) 567-8124		37.800957	-122.437091
Arc Cafe	1890 Bryant St	94110	(415) 437-2233		37.763139	-122.410344
Avenue Lounge	1334 Noriega St	94122	(415) 731-3757		37.754316	-122.478194
Asqew Grill	1607 Haight St	94117	(415) 701-9301	http://www.asqewgrill.com	37.769702	-122.44886
Alioto's Restaurant	2720 Taylor St	94133	(415) 673-0183		37.807572	-122.415592
Annie's Hot Dogs and Pretzels	899 Market St	94103	(415) 861-0778	http://www.annieshotdogs.com	37.787829	-122.402982
Artesano	3415 California St	94118	(415) 221-5500	http://www.artesanosf.com	37.786637	-122.450384
Ambrosia Bakery	2605 Ocean Ave	94132	(415) 334-5305	http://www.sfbakery.com	37.731623	-122.473422
Ay Caramba	3247 Mission St	94110	(415) 824-0884		37.744743	-122.420138
Andersen Bakery	525 Market St	94105	(415) 495-6600		37.790877	-122.399796
Amelie	1754 Polk St	94109	(415) 292-6916	http://www.ameliesf.com	37.793063	-122.421134
Amici's East Coast Pizzeria	2033 Union St	94123	(415) 885-4500	http://www.amicis.com	37.797321	-122.43281
Akiba	3141 Clement St	94121	(415) 692-4556	http://www.akiba-sf.com	37.781584	-122.493103
Ace Sandwich Cafe	264 14th St	94103			37.768339	-122.419285
Aliotos Fish Company	360 Jefferson St	94133	(415) 673-8300	http://www.aliotos.com	37.807969	-122.418471
Asian Box	170 Ofarrell St	94102	(415) 288-3688	http://asianboxpaloalto.com	37.786833	-122.407463
A Taste of Aloha	520 4th St	94107	(415) 495-6620		37.77926	-122.397929
Absin The Pastry	201 Ivy St	94102	(415) 551-5126	http://www.absinthe.com	37.777433	-122.421543
Asia Chinese Food	350 Bay St	94133	(415) 391-8819		37.805881	-122.41285
Aperto Restaurant	1434 18th Ave	94122	(415) 252-1625	http://apertosf.com	37.76109	-122.475703
Acre Catering	3601 Lyon St	94123	(415) 921-8603	http://exploratorium.edu	37.804076	-122.448415
Anda Piroshki	1727 Haight St	94117	(415) 821-9905	http://andapiroshki.com	37.769367	-122.451214
All Star Donuts	399 5th St	94107	(415) 882-0889		37.779237	-122.401911
Alcatraz Landing Cafe	Pier 33	94133	(415) 981-7625		37.806846	-122.405179
Acaxutla Taqueria and Restaurant	2282 Mission St	94110	(415) 626-1173		37.760576	-122.419374
Alma Restaurant Partnership	120 Alma St	94117	(415) 401-8959		37.763228	-122.449755
Acme Burgerhaus	559 Divisadero St	94117	(415) 346-3212	http://www.acmeburgerhaus.com	37.77475	-122.437799
Alioto's Waterside Cafe	7 Fishermans Wharf	94133	(415) 359-1200	http://aliotos.com/index.php/aliotos-waterside-cafe	37.809005	-122.416366
Avenue G	1570 Stockton St	94133	(415) 989-0399	http://restaurantavenueg.com	37.800168	-122.409073
ABC Bakery Cafe	2500 Noriega St	94122	(415) 681-8800	http://www.abcbakeryandcafe.com	37.753659	-122.490505
Aqua	252 California St	94111	(415) 956-9662	http://www.aqua-sf.com	37.7934	-122.399587
Auntie April's Chicken and Waffles	4618 3rd St	94124	(415) 643-4983	http://www.auntieaprils.com	37.736142	-122.390452
Anchor Oyster Bar	579 Castro St	94114	(415) 431-3990	http://www.anchoroysterbar.com	37.759707	-122.434872
Ace Wasabi's Rock N Roll Sushi	3339 Steiner St	94123	(415) 567-4903	http://www.acewasabisf.com	37.800106	-122.437889
Anderson AV Rentals	68 Gilbert St	94103	(415) 227-4400	http://www.andersonavrentals.com	37.773808	-122.403231
Allstar Donuts and Sandwich	1500 Market St	94102	(415) 252-9888	http://www.bstarbar.com	37.775267	-122.419442
Altena Taqueria	2588 Mission St	94110	(415) 641-8415		37.755713	-122.418901
Aram's Restaurant	279 30th Ave	94121	(415) 826-2307		37.784048	-122.490725
Ace Parking Management	201 Mission St	94105	(415) 495-4309	http://aceparking.com	37.791837	-122.395393
Amawele's South African Kitchen	101 Spear St	94105	(415) 536-5900	http://www.amawelessouthafricankitchen.com	37.792284	-122.392933
Amisha Indian Cuisine	1924 Irving St	94122	(415) 759-7007	http://amishaindiancuisine.com	37.763617	-122.478631
American Box	339 Taylor St	94102	(415) 474-3474	http://www.americanboxlunch.com	37.785526	-122.411259
Association-Chinese Finance	240 Hazelwood Ave	94127	(415) 333-2737		37.73204	-122.454854
Andersen Bakery	1390 Market St	94102	(415) 553-6058	http://www.andersenbakery.com	37.777053	-122.417362
ABC Bakery Cafe	650 Jackson St	94133	(415) 981-0685	http://www.abcbakeryandcafe.com	37.796225	-122.406083
Aracely	1201 8th St	94107	(415) 437-2947	http://www.aracelysf.com	37.76665	-122.399328
Annual Armenian Food Festival and Bazaar	825 Brotherhood Way	94132	(415) 751-9140	http://www.stgregorysf.org	37.713534	-122.478618
Aroma Tea Shop	845 Washington St	94108	(415) 362-6588		37.794893	-122.407514
ABL Restaurant Mexican Food	2052 Mission St	94110	(415) 621-5510		37.7641	-122.419922
A and E BBQ	190 Tioga Ave	94134	(415) 468-3639		37.717206	-122.407488
Abbondanza Catering	520 Hayes St	94102	(415) 552-2672		37.776762	-122.425094
All Asia Foods	1950 Innes Ave	94124	(415) 641-7867		37.743176	-122.395037
Alioto's Crab Stand	Fisherman S Wharf	94199	(415) 673-0183	http://www.fishermanswharf.org/Alioto.htm	37.807572	-122.415592
Allstar Donuts and Sandwich	98 9th St	94103	(415) 863-4949		37.776243	-122.414863
Alpha Numeric Restaurant	225 Clement St	94118	(415) 752-2298		37.782982	-122.461709
Alcatraz Pizza	977 N Point St	94109	(415) 441-6989	http://www.alcatrazpizza.com	37.805364	-122.42326
Ayadi Pizza	377 Bay St	94133	(415) 398-1000	http://www.ayadipizza.com	37.805599	-122.413134
Arc Com Fabrics	251 Rhode Island St	94103	(415) 861-8600		37.766787	-122.402553
A-1 Bakery	1727 Ocean Ave	94112	(415) 584-6923		37.724712	-122.460802
All Season Restaurant	5238 Diamond Heights Blvd	94131	(415) 282-8883	http://www.allseasonrestaurant.com	37.744239	-122.439297
Anu	43 6th St	94103	(415) 543-3505	http://www.anu-bar.com	37.781639	-122.409569
Ana Mandara	891 Beach St	94109	(415) 771-6800	http://www.anamandara.com	37.806171	-122.42357
Amy's Cafe	175 Steuart St	94105	(415) 896-2589		37.792372	-122.392001
Amici's East Coast Pizzeria	216 King St	94107	(415) 546-6666	http://www.amicis.com	37.777815	-122.392432
Alborz	1245 Van Ness Ave	94109	(415) 440-4321	http://www.alborzrestaurants.com	37.787367	-122.421853
Adobo Roll-O	18th St	94110		http://twitter.com	37.761439	-122.425994
Asian Restaurant	5173 Mission St	94112	(415) 586-1206	http://www.asiasf.com	37.715918	-122.441342
Aato	1449 Lombard St	94123	(415) 292-2368	http://www.aatosf.com	37.801111	-122.42551
Ar Roi Restaurant	643 Post St	94109	(415) 771-5146	http://www.arroithai.com	37.787703	-122.412413
Ayola	118 New Montgomery St	94105	(415) 348-0808	http://ayolasf.com	37.787166	-122.400207
Ajisen Ramen	865 Market St	94103	(415) 357-0288	http://www.ajisen-la.com	37.784065	-122.407369
Avenue G	1000 Clement St	94118	(415) 221-7111		37.782826	-122.469911
Archive Bar and Kitchen	602 Mission St	94105	(415) 987-5770	http://www.archivebarsf.com	37.787944	-122.400128
Adelita's Cakes Con Sabores Nicaraguense	3780 Mission St	94110	(415) 824-4584		37.736125	-122.42505
Arinell Pizza	509 Valencia St	94110	(415) 255-1303	http://www.facebook.com/pages/Arinell-Pizza-Inc/116617358352278	37.764721	-122.421841
Auxiliary Shops At Mt Zion Hsp	1600 Divisadero St	94115	(415) 353-7776	http://mountzion.ucsfmedicalcenter.org	37.785085	-122.439102
All Day Cafe	1105 Market St	94103	(415) 252-8883		37.780314	-122.412597
Aquitaine	175 Sutter St	94104	(415) 402-5290	http://www.aquitainesf.com	37.789883	-122.403585
Al's Elbow Room	5650 Mission St	94112	(415) 333-2828		37.710815	-122.448013
Aioli Cafe De La Presse	469 Bush St	94108	(415) 249-0900	http://www.cafedelapresse.com	37.790496	-122.405431
Arizmendi Bakery	1268 Valencia St	94110	(415) 826-9218	http://valencia.arizmendi.coop	37.752588	-122.420878
Alice's	1599 Sanchez St	94131	(415) 282-8999	http://www.alicesrestaurantsf.com	37.743664	-122.428752
Angel Cafe and Deli	700 Geary St	94109	(415) 931-3467	http://www.facebook.com/pages/Angel-Cafe-Deli/112934242059472	37.786553	-122.414883
American Cupcake	1919 Union St	94123	(415) 896-4217	http://www.americancupcake.com	37.79762	-122.430961
Asia Express	239 Powell St	94102	(415) 982-0166		37.786868	-122.408234
Ashley's Cafe	4454 California St	94118	(415) 831-6269	http://www.ashleyscafe.com	37.784984	-122.46554
Ak Pizza	3088 Balboa St	94121	(415) 387-4992	http://pizzajointpizza.com	37.776065	-122.491857
Annie's Social Club	917 Folsom St	94107	(415) 974-1585	http://www.anniessocialclub.com	37.77994	-122.40375
Asia Express	1650 Holloway Ave	94132	(415) 338-6338		37.722681	-122.478308
Andale Mexican Restaurant	845 Market St	94103	(415) 243-8700	http://www.andalemexican.com	37.784542	-122.406803
Alex Bakery	431 Clement St	94118	(415) 387-0151		37.782879	-122.463874
Alma's Restaurant	1101 Valencia St	94110	(415) 401-8959	http://www.almacomida.com	37.755277	-122.420829
Alhamra	3083 16th St	94103	(415) 621-3935	http://alhamrarestaurant.net	37.76486	-122.421408
All Good Pizza	1605 Jerrold Ave	94124	(415) 846-6960	http://allgoodpizza.com	37.738802	-122.389689
Ariake Japanese Restaurant	5041 Geary Blvd	94118	(415) 221-6210	http://www.sfariake.com	37.780479	-122.473478
Adina For Life	660 York St	94110	(415) 285-9300	http://www.adinaworld.com	37.760932	-122.409288
Aloha Seafood	2224 Larkin St	94109	(415) 441-4484	http://alohaseafood.net	37.798499	-122.420575
Ayola	327 Kearny St	94108	(415) 391-1154	http://www.ayolasf.com	37.791076	-122.404124
Ace Parking Management	555 Montgomery St	94111	(415) 398-1900	http://www.aceparking.com	37.794393	-122.403392
Anna Bakery	715 Clay St	94108	(415) 989-8898		37.794354	-122.405043
Acre Cafe	1013 Lincoln Way	94122	(415) 561-2273	http://www.acregourmet.com/ourservices/concessions.html	37.765719	-122.468838
Annie's Hot Dogs and Pretzels	555 Fulton St	94102	(415) 861-0778	http://annieshotdogsandpretzels.liveonatt.com	37.778299	-122.4258
Another Cafe	1191 Pine St	94109	(415) 857-5770	http://www.anothercafesf.com	37.790237	-122.415446
Ah Lin Restaurant	1634 Bush St	94109	(415) 922-5279	http://www.ahlinrestaurantsf.com	37.788265	-122.424188
Academy Cafe	100 Middle East Dr	94118	(415) 876-6124	http://www.academycafesf.com	37.777111	-122.466553
Auntie J's Caramel Kettle Corn	Dolores Park	94110			37.76266	-122.425469
Americana Grill and Fountain	3532 Balboa St	94121	(415) 387-2893	http://americanagrillandfountain.com	37.77585	-122.496788
Ame Restaurant	689 Mission St	94105	(415) 284-4040	http://www.amerestaurant.com	37.786297	-122.401826
A Sip and A Taste	1144 Ingerson Ave	94124	(415) 282-5135		37.720675	-122.395539
Amy's Cafe	280 Golden Gate Ave	94102	(415) 931-3928		37.781879	-122.415178
Adi	1480 Carroll Ave	94124	(415) 671-0277		37.723882	-122.3909
Astronaut Cafe	428 11th St	94103		http://www.astronautcafe.com	37.769769	-122.412049
Anchor Brewing Co.	1705 Mariposa St	94107	(415) 863-8350	http://www.anchorbrewing.com	37.763527	-122.401079
Abacus	2078 Hayes St	94117	(415) 387-2828	http://www.abacussf.com	37.773377	-122.450506
All About Herbs	704 Post St	94109	(415) 292-6856		37.787746	-122.413647
After Osha	432 Sutter St	94108	(415) 397-6742	http://www.afterosha.com	37.789424	-122.407462
AK Subs	397 8th St	94103	(415) 241-9600	http://www.aksubs.net	37.773926	-122.40853
Allstar Donuts and Burgers	290 Golden Gate Ave	94102	(415) 921-5541		37.781746	-122.415409
Aux Delices Vietnamese Restaurant	2327 Polk St	94109	(415) 928-4977	http://www.auxdelicessf.com	37.798249	-122.422319
Alibi Restaurant and Lounge	142 Minna St	94105	(415) 857-4142	http://www.sfalibi.com	37.786754	-122.400374
Ananda Fuara	1298 Market St	94102	(415) 621-1994	http://www.anandafuara.com	37.777752	-122.416186
Aveline	490 Geary St	94102	(415) 345-2303	http://www.avelinesf.com	37.787142	-122.411335
Al's Good Food Cafe	3286 Mission St	94110	(415) 641-8445	http://alssupercafe.com	37.744225	-122.420903
Alchemist Bar and Lounge	679 3rd St	94107	(415) 746-9968	http://www.alchemistsf.com	37.779183	-122.393132
A G Ferrari Foods	688 Mission St	94105	(415) 344-0644	http://www.agferrari.com	37.786497	-122.401805
Akiko's Sushi Bar	542 Mason St	94102	(415) 989-8218	http://www.chinsushibar.com	37.788695	-122.410098
Alex Gourmet Burrito	545 Sansome St	94111	(415) 362-1384		37.795386	-122.401694
Axum Cafe	698 Haight St	94117	(415) 252-7912	http://www.axumcafe.com	37.771778	-122.43365
Amber India Restaurant	25 Yerba Buena Ln	94103	(415) 777-0500	http://www.amber-india.com/SanFrancisco	37.785783	-122.404371
Applebee's	2770 Taylor St	94133	(415) 749-9025	http://www.applebees.com	37.808092	-122.415662
American Bao Bar	2491 Mission St	94110	(800) 226-3678	http://www.americanbaobarsf.com	37.757272	-122.419115
Aslam's Rasoi	1037 Valencia St	94110	(415) 695-0599	http://www.aslamsrasoi.com	37.756339	-122.420998
Assab	2845 Geary Blvd	94118	(415) 441-7083	http://www.menutopia.com/GetMenu.m?vendorId=8607	37.782116	-122.449834
Aziza	5800 Geary Blvd	94121	(415) 752-2222	http://www.aziza-sf.com	37.780481	-122.481692
Ala Romana	1098 Jackson St	94133	(415) 292-3699	http://alaromana.com	37.795285	-122.41323
AQ Restaurant and Bar	1085 Mission St	94103	(415) 341-9000	http://www.aq-sf.com	37.779461	-122.410478
Absinthe Brasserie and Bar	398 Hayes St	94102	(415) 551-1590	http://www.absinthe.com	37.77708	-122.422912
Amber Dhara	680 Valencia St	94110	(415) 400-5699	http://www.amber-india.com	37.762025	-122.421715
Aliment	786 Bush St	94108	(415) 829-2737	http://www.alimentsf.com	37.79	-122.410219
Acquerello	1722 Sacramento St	94109	(415) 567-5432	http://www.acquerello.com	37.791473	-122.421413
Butterfly	1500 The Embarcadero	94133	(415) 864-8999	http://www.butterflysf.com	37.806781	-122.405376
Blue Mermaid Chowder House and Bar	495 Jefferson St	94109	(415) 771-2222	http://www.bluemermaidsf.com	37.807407	-122.420671
Baraka	410 Townsend St	94107	(415) 255-0387	http://www.barakasf.net	37.775154	-122.397426
Burger King	360 Bay St	94133	(415) 421-6940	http://www.bk.com	37.805768	-122.412935
Belly Good Cafe and Crepes	1737 Post St	94115	(415) 346-8383		37.78532	-122.43035
Bamboo Pizza	407 Ellis St	94102	(415) 292-5861		37.784799	-122.412983
Bar Norcini	225 Powell St	94102	(415) 397-3621	http://www.barnorcini.com	37.786792	-122.4082
Betelnut	2030 Union St	94123	(415) 929-8855	http://www.betelnutrestaurant.com	37.797567	-122.432784
Bernie's	3966 24th St	94114	(415) 642-1192		37.751485	-122.431072
Black Point Cafe	882 N Point St	94109	(415) 800-8448	http://www.blackpointcafesf.com	37.805656	-122.421811
Burger King	2978 16th St	94103	(415) 863-5066	http://www.bk.com	37.765165	-122.419226
Bay Gourmet Cafe	163 2nd St	94105	(415) 618-0534		37.787363	-122.398795
Brasserie S and P	222 Sansome St	94104	(415) 986-2020	http://www.mandarinoriental.com/sanfrancisco	37.792483	-122.400909
Boxers Bar and Grill	2477 Lombard St	94123	(415) 885-2663		37.799021	-122.442115
Beijing On Irving Restaurant	1030 Irving St	94122	(415) 731-8110	http://www.goldenricebowlca.com	37.764068	-122.468923
Bonbon Patisserie	308 Kearny St	94108	(415) 956-5005	http://www.bonbonsf.com	37.790913	-122.403992
Big Chef Tom's Belly Burgers	1550 Howard St	94103	(415) 513-1331	http://bctbellyburgers.com	37.772494	-122.416524
Blondie's Bar and No Grill	540 Valencia St	94110	(415) 864-2419	http://www.blondiesbar.com	37.76424	-122.421916
Beach Blanket Babylon	678 Green St	94133	(415) 421-4222	http://www.beachblanketbabylon.com	37.79954	-122.410273
Brick Oven Pizza	543 Monterey Blvd	94127	(415) 468-6633		37.731515	-122.447206
Bay Blend Coffee and Tea	1905 Mission St	94103	(415) 551-2536		37.766563	-122.419791
Bar 888	888 Howard St	94103	(415) 616-6566	http://www.grappabar888.com	37.781829	-122.404708
Bug and Bean Photography	2013 17th St	94103	(408) 470-0707	http://www.bugandbeanphotography.com	37.764495	-122.403942
Balboa Cafe	3199 Fillmore St	94123	(415) 921-3944	http://www.balboacafe.com	37.798897	-122.435998
Bagelry	2139 Polk St	94109	(415) 441-3003	http://www.thebagelrymd.com	37.796459	-122.422019
Beauty Bar	2225 Mission St	94110	(415) 285-0323	http://thebeautybar.com/san_francisco	37.760347	-122.419052
Boston Market	2300 16th St	94103	(415) 864-7666	http://www.bostonmarket.com	37.765893	-122.408948
Brass Tacks	488 Hayes St	94102	(415) 864-6672	http://brasstackssf.com	37.776625	-122.424426
Buckhorn Grill	100 Drumm St	94111	(415) 989-1071	http://www.buckhorngrill.com	37.794604	-122.396488
Belden Place	Belden Pl	94104	(415) 986-5673	http://www.belden-place.com	37.791336	-122.403741
Boboquivari's San Francisco Steakhouse	1450 Lombard St	94123	(415) 441-8880	http://www.boboquivaris.com	37.801347	-122.425583
Bite Me Burger	581 Valencia St	94110	(415) 551-2483		37.763681	-122.421775
Bon Appetit	2130 Fulton St	94117	(415) 422-2306		37.775152	-122.451974
Buck Horn Grill	845 Market St	94103	(415) 978-9770	http://www.buckhorngrill.com	37.784158	-122.406995
Beach Hut Café	1199 E Beach	94129	(415) 561-7761	http://www.parksconservancy.org/our-work/crissy/visit/location-and-directions.html	37.805893	-122.449089
Breaking Bread	100 Drumm St	94111	(415) 318-1800	http://www.breakingbreadsf.com	37.794866	-122.396295
Bun Rieu	388 Market St	94111	(415) 291-0686		37.79232	-122.398153
Boudin Sourdough Bakery and Cafe	564 Market St	94104	(415) 924-5146		37.789592	-122.401186
Burritt Room	417 Stockton St	94108	(415) 400-0561	http://www.charliepalmer.com/Properties/Burritt	37.789798	-122.407252
Brothers Pizza	3627 Taraval St	94116	(415) 753-6004	http://www.brotherspizzasf.com	37.741634	-122.505011
Bangkok Noodles	110 Powell St	94102	(415) 397-2199	http://bangkoknoodles.com	37.785735	-122.40787
Blackthorn Tavern	834 Irving St	94122	(415) 564-6627	http://www.blackthornsf.com	37.764138	-122.467019
Ballet Studio	128 10th St	94103	(415) 861-5520	http://www.balletstudiosf.com	37.774843	-122.415558
Bechelli's Coffee Shop	2346 Chestnut St	94123	(415) 346-1801		37.800164	-122.441972
Bayside Market	120 Brannan St	94107	(415) 227-0151		37.784635	-122.388698
Burgermeister	759 Columbus Ave	94133	(415) 296-9907	http://www.burgermeistersf.com	37.801669	-122.412233
Black Jet Baking Co.	1 Ferry Building	94111	(415) 845-9925	http://www.blackjetbakingco.com	37.795233	-122.39343
Balance Catering	2800 Bryant St	94110	(415) 577-3702	http://www.balancecatering.com	37.748778	-122.408841
Burger King	1690 Valencia St	94110	(415) 641-9885	http://www.bk.com	37.745809	-122.420337
Best of Thai Noodle	1418 Haight St	94117	(415) 552-3534	http://www.bestofthainoodle.com	37.770215	-122.445744
Bonjour Patisserie	655 Townsend St	94103	(415) 558-8016		37.77067	-122.402667
Bento House	448 Larkin St	94102	(415) 931-9988	http://www.bentohousesf.com	37.781988	-122.417273
Bambuddha Lounge	601 Eddy St	94109	(415) 885-5088	http://www.chambers-sf.com	37.783115	-122.417878
Baked	1415 18th St	94107	(415) 826-9455	http://www.bakedsf.com	37.762512	-122.396824
Beard Papa Sweets Cafe	99 Yerba Buena Ave	94127	(415) 978-9972	http://muginohointl.com	37.737126	-122.463248
Bitterroot	3122 16th St	94103	(415) 626-5523		37.764974	-122.422513
Banhwich	1105 Taraval St	94116	(415) 665-2233		37.742865	-122.478087
Beatbox	314 11th St	94103	(415) 500-2675	http://www.beatboxsf.com	37.771498	-122.413828
Bernal Supper Club	1152 Valencia St	94110	(415) 401-7258	http://bernalsupperclub.com	37.754485	-122.420952
Bullitt	2209 Polk St	94109	(415) 268-0140	http://www.bullittsf.com	37.797099	-122.422133
Bhl	201 Clay St	94111	(415) 248-0011		37.795155	-122.398126
Batter Bakery	555 California St	94104	(415) 706-8076	http://www.batterbakery.com	37.792493	-122.403867
Bus Stop Pizza	256 Divisadero St	94117	(415) 626-5559		37.771489	-122.43698
Bar Drake	450 Powell St	94102	(415) 392-7755	http://www.sirfrancisdrake.com/eat-drink-dance/bar-drake	37.7893	-122.408846
Bai Som Thai Kitchen	2121 Clement St	94121	(415) 751-5332	http://www.baisomthai.com	37.782014	-122.482043
Bean Island	101 4th St	94103	(707) 280-8527	http://www.thebeancoffeecompany.com	37.784103	-122.402927
Boba Guys	3378 18th St	94110	(415) 967-2622	http://www.bobaguys.com/index.html	37.761937	-122.41882
Buena Suerte Cafe	4995 Mission St	94112	(415) 841-0467	http://www.buenasuertecafe.com	37.71868	-122.43935
Bangkok 900	900 Stanyan St	94117	(415) 665-5333		37.766294	-122.452825
Bravado Italian Coffee Bar and Lounge	170 King St	94107	(415) 957-1100	http://www.bravadosf.com	37.778638	-122.391378
Boccalone	1 Ferry Building	94111	(415) 433-6500	http://www.boccalone.com	37.795341	-122.393443
Boudin Bakery	25 Van Ness Ave	94102	(650) 871-2515	http://boudinbakery.com	37.784333	-122.417036
Breakfast At Tiffany's	2499 San Bruno Ave	94134	(415) 468-0977		37.730303	-122.404649
Bar 333 and Bistro	333 Battery St	94111	(415) 296-2933	http://www.starwoodhotels.com/lemeridien/property/dining/index.html?propertyID=1957	37.794632	-122.400317
Bow Bow Cocktail Lounge	1155 Grant Ave	94133	(415) 421-6730		37.797543	-122.406929
Bread and Butter Cafe	1901 Hayes St	94117	(415) 221-8700	http://www.breadandbuttercafe.com	37.773572	-122.447819
Bay Subs and Deli	2486 Sacramento St	94115	(415) 346-3888		37.789877	-122.433752
Biscoff Coffee Corner	Pier 39	94133	(415) 393-9554	http://www.biscoffcoffeecorner.com	37.809026	-122.410157
Belinda's Club	3202 Mission St	94110	(415) 641-4663		37.7453208	-122.4200822
Balancoire	2565 Mission St	94110	(415) 920-0577	http://www.balancoiresf.com	37.756053	-122.418638
Berber Cafe	149 Hyde St	94102	(415) 749-0923		37.782206	-122.415778
BBC Cafe	1485 Bay Shore Blvd	94124	(415) 467-2050		37.725933	-122.401419
Blue Front Deli and Cafe	1430 Haight St	94117	(415) 252-5917	http://www.bluefrontcafe.com	37.770212	-122.445926
Brisas De Acapulco Mexican Restaurant	3137 Mission St	94110	(415) 826-1496	http://www.acapulcosf.com	37.747113	-122.418769
BurritoDelivery.com	701 Randolph St	94132	(415) 333-0313	http://burritodelivery.com	37.714258	-122.468898
Baobab	3388 19th St	94110	(415) 643-3558	http://www.bissapbaobab.com	37.760253	-122.418948
Blue Hawaii Lifestyle	Davis St	94111	(415) 830-9389	http://www.bluehawaiisf.com	37.794719	-122.398602
Beanery	602 Irving St	94122	(415) 661-1090	http://www.hodosoy.com	37.76415	-122.464307
Burgermeister	138 Church St	94114	(415) 437-2874	http://www.burgermeistersf.com	37.768756	-122.429086
Black Magic	1400 Lombard St	94123	(415) 931-8711	http://www.myspace.com/blackmagicvoodoolounge	37.801388	-122.424818
Burger Bar	170 Ofarrell St	94102	(415) 983-0281	http://www.burger-bar.com	37.788147	-122.40771
Beard Papa	760 Mission St	94103	(415) 978-9972	http://www.beardpapasf.com	37.785234	-122.403605
Bistro	400 Castenada Ave	94116	(415) 386-1942		37.745707	-122.465963
Bohemia	1624 California St	94109	(415) 474-6968	http://www.bohemiasf.com	37.790769	-122.42111
Burger King	819 Van Ness Ave	94109	(415) 775-4211	http://www.bk.com	37.78319	-122.421032
Bill's Place	2315 Clement St	94121	(415) 221-5262	http://www.billsplace.qpg.com	37.782005	-122.484011
Bloem 'n Sugar	865 Market St	94103	(415) 615-0064	http://www.bloemnsugar.com	37.784152	-122.407484
Big 4	1075 California St	94108	(415) 771-1140	http://www.big4restaurant.com	37.791525	-122.412118
Bangkok Lounge	836 Mission St	94103	(415) 777-4222	http://www.bangkoklounge.com	37.784182	-122.404783
Barolo Restaurant	400 Dewey Blvd	94116	(415) 661-9210		37.747277	-122.459346
Balompie Cafe No 3	3801 Mission St	94110	(415) 647-4000	http://www.balompiecafe.com	37.735968	-122.424355
Bombay Ice Creamery	552 Valencia St	94110	(415) 861-3995	http://www.bombayicecream.com	37.764082	-122.421937
Beep's Burgers	1051 Ocean Ave	94112	(415) 584-2650		37.723231	-122.453936
Boba Guys	3491 19th St	94110	(415) 967-2622	http://www.bobaguys.com	37.760055	-122.42113
Barbary Coast	55 Cyril Magnin St	94102	(415) 989-3888	http://www.parc55hotel.com/dining	37.784684	-122.408604
Bread and Cocoa	199 Sutter St	94104	(415) 956-7200	http://www.breadandcocoa.com	37.78978	-122.403699
Buckhorn Grill	4 Embarcadero Ctr	94111	(415) 989-1071	http://www.buckhorngrill.com	37.795313	-122.396167
Blue Sky Restaurant	1504 Powell St	94133	(415) 989-5688	http://www.blueskywinebar.com	37.798576	-122.410429
Bento 415	300 De Haro St	94103	(415) 355-1269		37.76573	-122.401823
Beard Papa Sweets Cafe San Francisco Shopping Center	845 Market St	94103	(415) 978-9975	http://www.muginohointl.com	37.784203	-122.40637
Butterfly	33 Pier	94111	(415) 864-8999	http://www.butterflysf.com	37.806754	-122.405224
Ben and Jerry's Fisherman's Wharf	79 Jefferson Sq	94102	(415) 249-2662	http://www.benjerry.com	37.781224	-122.426527
Boudin Catering	564 Market St	94104	(415) 283-1230		37.789704	-122.400964
Bakers Square Restaurant and Pie	2353 Lombard St	94123	(415) 931-1174	http://www.bakerssquare.com	37.799116	-122.440086
Benkyodo Co.	1747 Buchanan St	94115	(415) 922-1244	http://www.benkyodocompany.com	37.786245	-122.430048
Basque, Nueva Cocina Vasca	398 7th St	94103	(415) 581-0550		37.775504	-122.406528
Boston Cafe	28 Van Ness Ave	94102	(415) 436-0177		37.775895	-122.41939
Blest Tea	752 Grant Ave	94108	(415) 951-8516	http://www.blesttea.com	37.794173	-122.406274
Big City Chefs	221 24th Ave	94121	(866) 321-2433	http://www.bigcitychefs.com	37.785387	-122.484283
Blooms Saloon	1318 18th St	94107	(415) 552-6707	http://www.bloomssaloon.com/?	37.762701	-122.396016
Bill's Kitchen	475 3rd St	94107	(415) 529-2794		37.781728	-122.396156
Bacchus Kirk	925 Bush St	94109	(415) 474-4056	http://www.bacchuskirk.org	37.789591	-122.412529
Big Al's Cheez 'n Bologna	556 Broadway	94133	(415) 986-6060		37.797932	-122.406516
Bacco	737 Diamond St	94114	(415) 282-4969	http://www.baccosf.com	37.751462	-122.436209
Beekind Honey Shop	1 Ferry Building	94111	(415) 307-8682	http://www.beekind.com	37.795521	-122.393462
British American Imports	726 15th St	94103	(415) 863-3300	http://www.britshoppe.com	37.767167	-122.408164
Bhel - Indian Food Popup Kitchen	3372 19th St	94110	(408) 840-2277	http://www.facebook.com/bhelsf	37.760361	-122.418715
Bruno's Pizza and Restaurant	1375 Fillmore St	94115	(415) 563-6300	http://www.sfbrunos.com	37.782224	-122.432707
Beanstalk Cafe	724 Bush St	94108	(415) 576-1966		37.790124	-122.409243
Boriana's Tuscan Market	Ferry	94102	(415) 402-0421		37.79532	-122.393944
Burger King	4780 Mission St	94112	(415) 469-5518	http://www.bk.com	37.721628	-122.437193
Broadway Showgirls	412 Broadway	94133	(415) 391-2800	http://www.showgirlssf.com	37.798261	-122.404235
Beijing Restaurant	1801 Alemany Blvd	94112	(415) 333-8182	http://beijingrestaurant.us	37.723541	-122.437296
Basil Thai Restaurant and Bar	1175 Folsom St	94103	(415) 552-8999	http://www.basilthai.com	37.77546	-122.409232
Ben and Jerry's	Pier 41	94133	(415) 484-5690	http://scoopshops.benjerry.com/scoopshops/fishermanswharf/default.aspx	37.808854	-122.411369
Bollyhood Cafe	3376 19th St	94110	(415) 970-0362	http://www.bollyhoodcafe.com	37.760373	-122.41868
Bullshead Restaurant	840 Ulloa St	94127	(415) 665-4350	http://www.bullsheadsf.com	37.740876	-122.465495
Bite Me Sandwiches	601 S Van Ness Ave	94110	(415) 431-4788	http://www.bitemesandwiches.com	37.763602	-122.417287
Brandy Ho's Hunan Food	4068 18th St	94114	(415) 252-8000	http://www.brandyhos.com	37.760987	-122.434231
Blue Muse Restaurant and Bar	370 Grove St	94102	(415) 701-9888	http://www.hayesvalleyshop.com	37.777925	-122.422605
Boudin Sourdough Bakeky and Cafe	160 Jefferson St	94133	(415) 421-0185	http://www.boudinbakery.com	37.808493	-122.413737
Broadway Dim Sum	684 Broadway	94133	(415) 989-2038		37.797714	-122.408358
Brioche Bakery and Cafe	210 Columbus Ave	94133	(415) 765-0412	http://briochecafe.com	37.797247	-122.405666
Beauty Bar	2299 Mission St	94110	(415) 285-0323	http://thebeautybar.com/san_francisco	37.760307	-122.419099
Best and Fresh	2949 Mission St	94110	(415) 400-4224		37.74989	-122.418036
Burger King	1701 Fillmore St	94115	(415) 346-1889	http://www.bk.com	37.785213	-122.433148
Beanery	1307 9th Ave	94122	(415) 661-1255		37.763812	-122.466369
Black Sheep	2032 Polk St	94109	(203) 276-5578	http://www.blacksheepsf.com	37.795529	-122.421653
Buddha Lounge	901 Grant Ave	94108	(415) 362-1792		37.795184	-122.406429
Burger King	554 25th Ave	94121	(415) 386-5077	http://www.bk.com	37.77903	-122.48464
Boudin Sourdough Bakery and Cafe	67 5th St	94103	(415) 543-8304	http://www.boudinbakery.com	37.783149	-122.406814
BL Catering	1465 Carroll Ave	94124	(415) 648-8881	http://billleecatering.com	37.723258	-122.390799
Bender's Bar and Grill	806 S Van Ness Ave	94110	(415) 824-1800	http://www.bendersbar.com	37.760261	-122.417157
Bar 821	821 Divisadero St	94117	(415) 596-3986	http://www.dajanigroup.net/establishments/bar-821	37.777151	-122.438341
Borderlands Cafe	870 Valencia St	94110	(415) 970-6998	http://www.borderlands-cafe.com	37.759064	-122.421446
Burmese Kitchen	452 Larkin St	94102	(415) 474-5569	http://www.burmesekitchen.com	37.782056	-122.417245
Bacon Bacon Truck	63 Bluxome St	94107	(415) 305-1968	http://www.baconbaconsf.com	37.776566	-122.397172
Birley Sandwiches	4 Embarcadero Ctr	94111	(415) 318-1800	http://www.birleys.com	37.794529	-122.396577
Bebebar	3809 18th St	94114	(415) 203-8406	http://www.facebook.com/bebebarsf	37.761116	-122.428545
Burma Tea Leaf	731 Clement St	94118	(415) 221-3888	http://www.burmatealeaf.com	37.782719	-122.467143
Big Nates Bar B Que	1665 Folsom St	94103	(415) 861-4242	http://www.catheadsbbq.com	37.770066	-122.415286
Bang San Thai Cuisine	791 Ofarrell St	94109	(415) 928-2772	http://www.bangsanthai.com	37.785073	-122.417809
Baldoria Restaurant	2162 Larkin St	94109	(415) 447-0441	http://www.amarenarestaurant.com	37.797765	-122.420442
B Cubed	1152 Valencia St	94110	(415) 401-7258		37.754315	-122.420995
Burger King	1298 Howard St	94103	(415) 487-1375	http://www.bk.com	37.775521	-122.413008
Burritt Room	47 Stockton St	94108	(415) 400-0500	http://sanfrancisco.grubstreet.com/2010/05/a_quick_peek_at_the_burritt_ro.html	37.789923	-122.407182
Biergarten	424 Octavia St	94102	(415) 252-9289	http://www.biergartensf.com	37.775875	-122.424053
Broaster Cafe	390 Golden Gate Ave	94102	(415) 749-0202		37.781611	-122.416906
Brunch Drunk Love	2389 Mission St	94110	(415) 648-6800	http://www.brunchdrunklovesf.com	37.758929	-122.418964
Boulange De Cole Valley	1000 Cole St	94117	(415) 242-2442	http://www.laboulangebakery.com	37.764787	-122.449613
Beach Chalet Office	4331 Irving St	94122	(415) 753-5260	http://www.beachchalet.com	37.762199	-122.50447
Bangkok Express Thai Cuisine	333 Bush St	94104	(415) 981-9333	http://www.bangkokexpresssf.com	37.790831	-122.402953
burritodelivery.com BOTANA	3231 Mission St	94110	(415) 863-9113		37.744996	-122.42011
Burger Bar	251 Geary St	94102	(415) 296-4272	http://www.burgerbarsf.com	37.787472	-122.407397
Baladie Gourmet Cafe	337 Kearny St	94108	(415) 989-6629	http://www.baladiecafe.info	37.791257	-122.404124
Broadway Joe's Oyster and Sports Bar	2550 Van Ness Ave	94109	(415) 567-4949		37.799358	-122.424098
Baan Thai House and Wine Bar	534 Irving St	94122	(415) 379-4505	http://www.baanthaihousesf.com	37.764239	-122.463632
Beaux Gateaux	654 33rd Ave	94121			37.773194	-122.509437
Bay Area VDO Production	1124 Eddy St	94109	(415) 595-6578	http://www.bayareavdoproduction.com	37.782455	-122.425928
Burger Joint	807 Valencia St	94110	(415) 824-3494	http://www.burgerjointsf.com	37.759926	-122.421337
Bistro Burger	343 Sansome St	94104	(415) 989-7566	http://www.bistroburger.net	37.793608	-122.401456
Baby's Eatery and Palabok	4609 Mission St	94112	(415) 585-0990		37.724275	-122.435033
Bitters, Bock and Rye	1117 Polk St	94109	(415) 440-4490	http://www.bittersbockandrye.com	37.786968	-122.420473
B Restaurant and Bar	720 Howard St	94103	(415) 495-9800	http://www.bsanfrancisco.com	37.784576	-122.401525
Burger King	724 La Playa St	94121	(415) 668-4725	http://www.bk.com	37.77462	-122.510044
Bistro 10UN	1130 Market St	94102	(415) 276-4048	http://www.bistro10un.com	37.774285	-122.42009
Boulange	2310 Polk St	94109	(415) 345-1107	http://laboulangebakery.com	37.797994	-122.42211
Bistro Gambrinus	1813 Fulton St	94117	(415) 221-7777	http://www.beerandgrill.com	37.775673	-122.446895
BibimBar	320 Bush St	94104	(415) 399-1961	http://www.bibimbar.com	37.790939	-122.403193
Buchanan Grill	3653 Buchanan St	94123	(415) 346-8727		37.803732	-122.43376
Butter	354 11th St	94103	(415) 863-5964	http://www.smoothasbutter.com	37.771112	-122.413233
Blissful Bites	397 Arguello Blvd	94118	(415) 750-9460	http://www.blissfulbitesbakery.com	37.783367	-122.459174
Buckhorn Grill	101 4th St	94103	(415) 369-6150	http://www.buckhorngrill.com	37.7845	-122.403956
Brooklyn Pizza	219 Jones St	94102	(415) 351-1117	http://www.brooklynpizzasf.com	37.783461	-122.412614
Bar Adagio	550 Geary St	94102	(415) 775-5000	http://www.hoteladagiosf.com/the-mortimer-bar.php	37.786988	-122.412388
Blue Barn Gourmet	2237 Polk St	94109	(415) 655-9438	http://www.bluebarngourmet.com	37.797538	-122.422225
Burger King	35 Powell St	94102	(415) 397-6340	http://www.bk.com	37.785069	-122.408075
Bacio Restaurant	835 Hyde St	94109	(415) 292-7999	http://www.baciocafe.com	37.788647	-122.41696
Boudin Sourdough Bakery and Cafe	619 Market St	94105	(415) 281-8200	http://www.boudinbakery.com	37.788913	-122.40164
Bar 1915	524 Sutter St	94102	(415) 421-2865	http://www.larkspurhotelunionsquare.com	37.789316	-122.409176
Big Mouth Burgers	3392 24th St	94110	(415) 821-4821	http://www.bigmouthburgerssf.com	37.752156	-122.420479
Be My Guest Thai Bistro	951 Clement St	94118	(415) 386-1942	http://www.bemyguestthaibistro.com	37.782608	-122.469556
Brighten Restaurant Service Co.	5538 3rd St	94124	(415) 822-2368		37.727387	-122.393634
Blue Sky Rental Studios	2325 3rd St	94107	(415) 626-7232	http://blueskysf.com	37.760105	-122.38819
Buckshop Bar and Gameroom	3848 Geary Blvd	94118	(415) 831-8838	http://buckshot-sf.com	37.781223	-122.460795
Bursa	60 W Portal Ave	94127	(415) 564-4006	http://bursa415.com	37.740211	-122.466583
Bus Stop Pizza	1836 Divisadero St	94115	(415) 346-3515		37.786648	-122.440058
Bloodhound	1145 Folsom St	94103	(415) 863-2840	http://www.bloodhoundsf.com	37.775872	-122.408882
Back Yard Kitchen	2760 Octavia St	94123	(415) 655-3023	http://www.backyardsf.com	37.797644	-122.428777
Baluca	316 11th St	94103	(415) 552-6478		37.771448	-122.413693
Boudin Sourdough Bakery and Cafe	1 Stockton St	94108	(415) 296-4191	http://www.boudinbakery.com	37.785809	-122.406275
Benjarong	1968 Lombard St	94123	(415) 441-8999	http://benjarongsf.com	37.800228	-122.433909
Bello Coffee and Tea	3000 24th St	94110	(415) 829-2822	http://www.bellocoffee.com	37.752672	-122.41202
Balboa Sushi House	402 Balboa St	94118	(415) 386-3769		37.777355	-122.463119
Bamboo Asia	41 Montgomery St	94104	(415) 772-9134	http://www.eatatbamboo.com	37.789647	-122.40219
Bombay Indian Restaurant	2217 Market St	94114	(415) 861-6655	http://www.bombayindian.com	37.765412	-122.431428
Bacar Restaurant and Wine Salon	70 Zoe St	94107	(415) 896-1300		37.779571	-122.395562
B and M Mei Sing Restaurant	62 2nd St	94105	(415) 777-9530		37.788454	-122.400548
Buddha Bristro	56 Belden Pl	94104	(415) 399-9898		37.791368	-122.403536
Big Joes	717 Monterey Blvd	94127	(415) 333-2878		37.731458	-122.451896
Ben and Jerry's	100 N Point St	94133	(415) 263-7233	http://www.benjerry.com	37.807603	-122.420269
Bravo Pizza	5145 Mission St	94112	(415) 585-8500	http://www.sfbravopizza.com	37.71654	-122.440874
Burger King	3900 Geary Blvd	94118	(415) 386-5077	http://www.bk.com	37.781367	-122.461224
Buster's	366 Columbus Ave	94133	(415) 392-2800	http://busterscheesesteak.com	37.798555	-122.407528
Blue Elephant Thai Cuisine	803 Cortland Ave	94110	(415) 642-9900	http://www.bluestarelephant.net	37.738971	-122.414474
Bask	42 Columbus Ave	94111	(415) 392-2275	http://www.basksf.com	37.79623	-122.404086
Bar None	1980 Union St	94123	(415) 409-4469	http://www.barnonesf.com	37.797652	-122.4319
Bazaar Cafe	5927 California St	94121	(415) 831-5620	http://www.bazaarcafe.com	37.783956	-122.481138
Bite Me Sandwiches	2797 16th St	94103	(415) 431-4788	http://www.bitemesandwiches.com	37.765228	-122.414984
Beach Bumz Island Grill	1582 Folsom St	94103	(415) 994-4973	http://www.jumpindumplin.com	37.771079	-122.414986
Bangkok Best Thai Restaurant of San Francisco	301 Kearny St	94108	(415) 362-2216	http://bagkokbest.eat24hour.com	37.790816	-122.404067
Basa Seafood Express	3064 24th St	94110	(415) 550-2388	http://www.basaseafood.com	37.752598	-122.41337
Brass Knuckle	749 Larkin St	94109	(415) 516-2194	http://www.brassknucklesf.com	37.784923	-122.417894
Burger House	237 Powell St	94102	(415) 956-2311	http://www.burgerhousesf.com	37.786913	-122.408205
Bluxome Street Winery	53 Bluxome St	94107	(415) 543-5353	http://www.bluxomewinery.com	37.776691	-122.396876
Bamboo Restaurant	1441 Polk St	94109	(415) 775-3679	http://www.bamboorestaurantsf.com	37.790133	-122.420655
Bourbon and Branch	501 Jones St	94102	(415) 346-1735	http://www.bourbonandbranch.com	37.785848	-122.413023
Bistro Yoffi	2303 Bush St	94115	(415) 885-5133		37.786794	-122.43532
Balompie Cafe	3349 18th St	94110	(415) 648-9199	http://www.balompiecafe.com	37.761891	-122.418273
Bow Hon Restaurant	850 Grant Ave	94108	(415) 362-0601		37.79498	-122.406319
Boulette's Larder	1 Ferry Building	94111	(415) 399-1155	http://www.bouletteslarder.com	37.795338	-122.392971
Bean There	201 Steiner St	94117	(415) 255-8855		37.770986	-122.43204
Blowfish Sushi to Die for	2170 Bryant St	94110	(415) 285-3848	http://www.blowfishsushi.com	37.759617	-122.409983
Bacon-Wrapped Hot Dog Cart	Mission St	94103	(415) 756-1220		37.774243	-122.410011
Brother Seafood Restaurant	1830 Irving St	94122	(415) 661-8033		37.763619	-122.477701
Brick's Bar and Grill	298 Pacific Ave	94111	(415) 788-2222		37.797898	-122.400703
Bartlett Hall	242 Ofarrell St	94102	(415) 433-4332	http://www.bartletthallsf.com	37.786375	-122.408747
Bumzy's Chocolate Chip Cookies	1460 Fillmore St	94115	(415) 346-3222	http://www.bumzys.com	37.783029	-122.432693
Blue Bottle Coffee Ferry Building	Building	NA	(415) 956-3331	http://www.bluebottlecoffee.net	37.795837	-122.393875
Baskin-Robbins	570 Battery St	94111	(415) 788-6467	http://www.baskinrobbins.com	37.796591	-122.40057
Basil Leaf Cafe	584 Washington St	94111	(415) 788-2669	http://www.thebasilleafcafe.com	37.795631	-122.402942
Bluesteam Brasserie	611 Folsom St	94107	(415) 547-1111		37.78498	-122.396536
Bus Stop	1901 Union St	94123	(415) 567-6905	http://www.busstopbar.com	37.797623	-122.43072
Beyond Expectations	6000 California St	94121	(415) 221-7835		37.784158	-122.481965
Butterfly	1710 Mission St	94103	(415) 864-8999	http://www.butterflysf.com	37.806571	-122.405554
Boudin Sourdough Bakery and Cafe	2890 Taylor St	94133	(415) 776-1849	http://www.boudinbakery.com	37.808832	-122.415797
Ben and Jerry's	1480 Haight St	94117	(415) 626-4143	http://scoopshops.benjerry.com/scoopshops/haightashbury/default.aspx	37.770109	-122.446701
Bobs Sushi	393 Bay St	94133	(415) 693-9218	http://www.ebisusushi.com	37.805616	-122.413004
Bakerandbanker	1701 Octavia St	94109	(415) 351-2500	http://www.bakerandbanker.com	37.787986	-122.426956
Bistro Burger	333 Bush St	94104	(415) 434-3754	http://www.bistroburger.net	37.79073	-122.403041
Bobo's	1450 Lombard St	94123	(415) 441-8880	http://www.boboquivaris.com	37.801226	-122.425403
Bomb Truck	Valencia St	94110	(415) 758-2662	http://www.bombtruck.com	37.761701	-122.421578
Blue Bottle Coffee	1 Ferry Building	94111	(510) 653-3394	http://www.bluebottlecoffee.net	37.795734	-122.393898
Boudin Sourdough Bakery and Café	101 California St	94111	(415) 362-3330	http://www.boudinbakery.com	37.793391	-122.397553
Blue Jay Cafe	919 Divisadero St	94115	(415) 447-6066	http://www.bluejaysf.com	37.778176	-122.438663
Balboa Teriyaki	3536 Balboa St	94121	(415) 751-8895		37.775664	-122.496745
Blue Fig	990 Valencia St	94110	(415) 875-9622		37.757108	-122.421206
Bolani - East and West Gourmet Afghan Foods	3251 20th Ave	94132	(925) 687-0817	http://bolaniandsauce.com	37.729871	-122.47794
Buckham's Lounge	Fort Mason	NA			37.804307	-122.422058
Buena Vista Cafe	2765 Hyde St	94109	(415) 474-5044	http://www.thebuenavista.com	37.806523	-122.420644
Brothers Restaurant	4128 Geary Blvd	94118	(415) 387-7991	http://www.krestaurant.com/review/html/restaurant_900.html	37.781173	-122.463756
Boomerang Cocktail Lounge	1430 Noriega St	94122	(415) 661-8016		37.75424	-122.47915
Booty Call Wednesdays	456 Castro St	94114		http://www.bootycallwednesdays.com	37.761637	-122.435167
Bistro 69	69 Maiden Ln	94108	(415) 398-3557	http://www.bistro69sf.com	37.788217	-122.404561
Blue Bottle Coffee Co Kiosk	2900 18th St	94110	(510) 653-3394	http://www.bluebottlecoffee.com	37.761883	-122.411667
Blur	1121 Polk St	94109	(415) 567-1918	http://blursf.com	37.787182	-122.420101
Banana House	321 Kearny St	94108	(415) 981-9090	http://bananamenu.eat24hour.com	37.791064	-122.404169
Beautifull	3401 California St	94118	(415) 728-9080	http://www.beautifull.com	37.78668	-122.450172
Black Cat	501 Broadway	94133	(415) 981-2233		37.797931	-122.405878
Best Gyro Cafe	320 11th St	94103	(415) 861-0888		37.771352	-122.413486
Boom Boom Room	1601 Fillmore St	94115	(415) 673-8000	http://www.boomboomblues.com	37.784479	-122.433097
Bambu Desserts and Drinks	6050 Geary Blvd	94121	(415) 379-4683	http://www.bambusf.com	37.780311	-122.484615
Bangkok Best Thai Restaurant	921 Front St	94102	(415) 391-0154		37.799855	-122.400465
Boudin Sourdough Bakery and Cafe	4 Embarcadero Ctr	94111	(415) 362-3330	http://www.boudinbakery.com	37.79526	-122.39603
Bund Shanghai Restaurant	640 Jackson St	94133	(415) 982-0618	http://www.bundshanghaisf.com	37.796269	-122.405936
Bamboo Hut	479 Broadway	94133	(415) 989-8555	http://www.maximumproductions.com	37.797994	-122.405142
Boston Properties-Embarcadero Center	4 Embarcadero Ctr	94111	(415) 772-0500	http://bostonproperties.com	37.795557	-122.396129
Buck Tavern	1655 Market St	94103	(415) 874-9183	http://www.bucktavernsf.com	37.773308	-122.421507
B12: Bomb Vegan Brunch	3388 19th St	94110	(415) 643-3558		37.760265	-122.419007
Balo Vietnamese Eatery	426 Larkin St	94102	(415) 525-4923		37.781766	-122.417174
Bimbo's 365 Club	1025 Columbus Ave	94133	(415) 474-0365	http://www.bimbos365club.com	37.803748	-122.415406
Bread of Life Bakery	542 Clement St	94118			37.782932	-122.465188
Boxed Foods Company	245 Kearny St	94108	(415) 981-9376	http://www.boxedfoodscompany.com	37.790502	-122.404018
Boba Grille	3251 20th Ave	94132	(415) 753-2622		37.728717	-122.475807
Ben Wah Restaurant	2786 California St	94115	(415) 921-0188	http://www.benwahsf.com	37.788157	-122.440163
Biscuit Bender	1 Ferry Building	94111	(415) 678-9253	http://www.biscuitbender.com	37.795197	-122.3930184
Bar Crudo	603 Bush St	94108	(415) 956-0396	http://www.barcrudo.com	37.790196	-122.407929
Border Cantina	1192 Folsom St	94103	(415) 626-6043		37.775229	-122.41007
Betz and Sons	1906 Van Ness Ave	94109	(415) 921-1522		37.79334	-122.42266
Bills Kitchen and Teriyaki	475 3rd Ave	94118	(415) 541-0699		37.779643	-122.461199
Buffalo Burger Restaurant	5317 Geary Blvd	94121	(415) 668-1267		37.780368	-122.476449
Barney's Gourmet Hamburgers	4138 24th St	94114	(415) 282-7770	http://www.barneyshamburgers.com	37.751295	-122.434979
Brown Jug	496 Eddy St	94109	(415) 441-8404	http://www.thebrownjugsaloon.com	37.783648	-122.415751
Bix	56 Gold St	94133	(415) 433-6300	http://www.bixrestaurant.com	37.796796	-122.402864
Blue Cube	34 Mason St	94102	(415) 392-4833	http://www.bluecubesf.com	37.783524	-122.409019
Big Lantern Restaurant	3170 16th St	94103	(415) 863-8100	http://www.biglantern.com	37.764902	-122.423309
Barney's Gourmet Hamburger	3344 Steiner St	94123	(415) 563-0307	http://www.barneyshamburgers.com	37.80024	-122.437721
BOURBON STEAK San Francisco	335 Powell St	94102	(415) 397-3003	http://www.bourbonsteaksf.com	37.787764	-122.40842
Bangkok House Thai Cuisine	1713 Taraval St	94116	(415) 566-6143		37.742644	-122.484547
Blue Hawaii LifeStyle	2 Embarcadero Ctr	94111	(415) 248-0011	http://www.bluehawaiisf.com	37.794817	-122.398297
Bin 480	480 Sutter St	94108	(415) 398-8900	http://www.marriottunionsquare.com	37.789416	-122.408416
Bernal Heights Pizzeria	59 30th St	94110	(415) 400-5644	http://www.bernalheightspizzeria.com	37.742203	-122.423139
Best-O-Burger	89 Belden Pl	94104	(415) 986-3808	http://www.bestoburger.com	37.791588	-122.403937
Brown Owl Coffee	1131 Taraval St	94116	(415) 242-1426	http://www.brownowlcoffee.com	37.742821	-122.478431
Back Room Bistro	535 Florida St	94110	(415) 839-6446	http://www.backroombistro.com	37.762588	-122.41097
Ba-Nanna B's Ice Cream	1241 Ingalls St	94124	(415) 724-5288		37.730462	-122.380368
Bien Hoa	463 Ellis St	94102	(415) 771-5393		37.785032	-122.413732
Beach Street Grill	380 Beach St	94133	(415) 867-1711	http://www.beachstreetgrillsf.com	37.807356	-122.41532
Barney's Marina	3344 Steiner St	94123	(415) 563-0307	http://www.barneyshamburgers.com	37.800199	-122.437656
B3	3231 Mission St	94110	(415) 550-8181		37.74507	-122.420081
Burger King	2739 Taylor St	94133	(415) 674-8159	http://www.bk.com	37.807766	-122.415845
Bob's Burger	3116 Noriega St	94122			37.753406	-122.49709
Barbera Fine Foods	625 Post St	94109	(415) 929-6900		37.787837	-122.412002
Brava For Women In The Arts	2789 24th St	94110	(415) 641-7657	http://www.brava.org	37.752767	-122.407869
Bella Lucca	418 Geary St	94102	(415) 776-6777		37.787177	-122.410182
Briazz	2 Embarcadero Ctr	94111	(415) 986-1400		37.794863	-122.398965
Bartlett Hall	242 Ofarrell St	94102	(415) 433-4332	http://www.bartletthallsf.com	37.786378	-122.408723
Bambino's Ristorante	945 Cole St	94117	(415) 731-1343	http://www.bambinosristorante.com	37.765194	-122.449926
B and J14 Lb Burgers	6202 3rd St	94124	(415) 467-4560		37.72233	-122.395945
Burger Urge	1599 Haight St	94117	(415) 522-0122	http://www.burgerurge.com.au	37.769789	-122.448423
Blackwood	2150 Chestnut St	94123	(415) 931-9663	http://www.blackwoodsf.com	37.800582	-122.438803
Blarney Stone	5625 Geary Blvd	94121	(415) 386-9914	http://www.blarneystonepubsf.com	37.780122	-122.479933
Blind Cat	3050 24th St	94110	(415) 401-8474	http://www.myspace.com/dirty_thieves	37.752627	-122.413024
Blue Mermaid Chowder House and Bar	471 Jefferson St	94109	(415) 771-2222	http://www.bluemermaidsf.com	37.807677	-122.420234
Barrique	461 Pacific Ave	94133	(415) 421-9200	http://www.barriquesf.com	37.797305	-122.403134
Bonanza Restaurant	16 Toland St	94124	(415) 647-2227	http://www.bonanzasteakhouses.com	37.746995	-122.39631
Bite	912 Sutter St	94109	(415) 563-2483	http://www.sfbite.net	37.788409	-122.415483
Boudin Sourdough Bakery and Cafe	251 Geary St	94102	(415) 296-4191	http://www.boudinbakery.com	37.787373	-122.407417
Burger King	245 Bay Shore Blvd	94124	(415) 821-6288	http://www.bk.com	37.7441	-122.404065
Brain Wash Cafe	1122 Folsom St	94103	(415) 861-3663	http://www.brainwash.com	37.776372	-122.408598
Blush! Wine Bar	476 Castro St	94114	(415) 558-0893	http://www.blushwinebar.com	37.761237	-122.43508
Bun Mee	650 Market St	94104	(415) 362-8663	http://www.bunmee.co	37.788426	-122.402767
Boudin Sourdough Bakery and Cafe	39 Pier	94133	(415) 421-0185	http://www.boudinbakery.com	37.808965	-122.410034
Bin 55	55 4th St	94103	(415) 896-1600	http://www.bin55.com	37.785097	-122.404432
Bread and Butter Graphic Design	690 Arkansas St	94107	(415) 282-8678		37.757566	-122.398205
Bacchus Wine Bar	1954 Hyde St	94109	(415) 928-2633	http://www.bacchussf.com/bacchus.aspx	37.799002	-122.418944
Butter Love Bakeshop	4401 18th St	94114	(415) 602-3988	http://www.butterlovebakeshop.com	37.760609	-122.43838
Blow Buddies	933 Harrison St	94107	(415) 777-4323	http://www.blowbuddies.com	37.778405	-122.402487
Battery Street Coffee Roastery	950 Battery St	94111	(415) 956-9772		37.80014	-122.401251
Bottom of the Hill	1233 17th St	94107	(415) 621-4455	http://www.bottomofthehill.com	37.765053	-122.396338
Boudin Sourdough Bakery and Cafe	399 10th Ave	94118	(415) 221-1210	http://www.boudinbakery.com	37.781093	-122.468687
Bullevue	2320 Lombard St	94123	(415) 409-6889		37.799331	-122.439754
Big Dipper Baby Food	331 Cortland Ave	94110	(415) 879-0433	https://www.facebook.com/pages/Big-Dipper-Baby-Food/135348479871757#!/pages/Big-Dipper-Baby-Food/135348479871757?sk=info	37.739317	-122.418029
Baoming	2240 Chestnut St	94123	(415) 345-8103		37.800375	-122.440066
Belcampo Meat Co.	1998 Polk St	94109	(415) 660-5573	http://www.belcampomeatco.com/restaurant/san-francisco	37.794865	-122.421381
Bahia Cafe	1901 Ocean Ave	94127	(415) 333-9088		37.725201	-122.461998
Beaux	2344 Market St	94114	(415) 658-7712	http://www.beauxsf.com	37.763561	-122.434061
Ben and Jerry's	24 Willie Mays Plz	94107	(415) 947-3244	http://www.benjerry.com	37.778817	-122.390375
Bell's Donut Shop and Restaurant	6 6th St	94103	(415) 431-4363		37.781987	-122.409995
Brekkie	159 Seal Rock Dr	94121	(415) 933-6459		37.780532	-122.508981
Bean Bag Coffee House	601 Divisadero St	94117	(415) 563-3634	http://beanbagcoffeehouse.com	37.775088	-122.437923
Blondies Pizza	63 Powell St	94102	(415) 982-6168	http://www.blondiespizza.com	37.785217	-122.40786
Bio	75 Ofarrell St	94108	(415) 362-0255	http://www.biologiquesf.com	37.786699	-122.405954
Beacon Coffee and Pantry	805 Columbus Ave	94133	(415) 814-2551	http://www.beacon-sf.com	37.80227	-122.413287
Black Jet Baking Company	425 Barneveld Ave	94124	(415) 845-9925	http://www.blackjetbakingco.com	37.741115	-122.403645
Bodega Bistro	607 Larkin St	94109	(415) 921-1218	http://www.bodegabistrosf.com	37.783481	-122.417665
Bernal Cutlery	593 Guerrero St	94110	(415) 902-6531	http://www.bernalcutlery.com	37.761822	-122.423687
Ben and Jerry's Ice Cream Catering SF Bay Area	2390 Powell St	94133	(415) 263-7233		37.806554	-122.411933
Batter Up	888 Geneva Ave	94112	(415) 205-6032	http://batterupsf.blogspot.com	37.716663	-122.441273
Burger King	1200 Market St	94102	(415) 255-1900	http://www.bk.com	37.778668	-122.415125
Bistro Burger	201 Mission St	94105	(415) 348-8788	http://www.bistroburger.net	37.791622	-122.395058
Bistro Burger	845 Market St	94103	(415) 495-2266	http://www.bistroburger.net	37.784478	-122.406621
Brannan Street Cafe	274 Brannan St	94107	(415) 543-6562		37.782425	-122.391643
Bay Watch	2150 Lombard St	94123	(415) 775-9673	http://www.sfbaywatch.com	37.799864	-122.437085
Basil Canteen	1489 Folsom St	94103	(415) 552-3963	http://www.basilcanteen.com	37.771824	-122.413622
Belly Burgers	5740 Geary Blvd	94121	(415) 933-6232	http://www.bellyburgers.net	37.780391	-122.481138
Bistro SF Grill	2819 California St	94115	(415) 409-6410	http://www.bistrosfgrill.com	37.788039	-122.44082
Breaking Bread	4 Embarcadero Ctr	94111	(415) 318-1800	http://www.breakingbreadsf.com	37.795197	-122.396045
Brazen Head	3166 Buchanan St	94123	(415) 921-7600	http://www.brazenheadsf.com	37.799268	-122.43251
B44	44 Belden Pl	94104	(415) 986-6287	http://www.b44sf.com	37.791316	-122.403734
Ben and Jerry's	475 Jefferson St	94109	(415) 567-5873	http://www.benjerry.com	37.807575	-122.420247
Blue Fog Market	2567 Gough St	94123	(415) 931-9331	http://www.bluefogmarket.com	37.797103	-122.427132
Burgermeister	86 Carl St	94117	(415) 566-1274	http://www.burgermeistersf.com	37.765857	-122.449717
Blue Fin Sushi	1810 Clement St	94121	(415) 387-2441	http://www.bluefinsushisf.com	37.782382	-122.478777
Blue Danube Coffee House	306 Clement St	94118	(415) 221-9041		37.783096	-122.462464
Bocce Cafe	478 Green St	94133	(415) 981-2044	http://www.boccecafe.com	37.799876	-122.40713
Bocadillos	710 Montgomery St	94111	(415) 982-2622	http://www.bocasf.com	37.795818	-122.403335
Bona Vita Cafe	1635 Divisadero St	94115	(415) 771-4900		37.784602	-122.440133
Bossa Nova	139 8th St	94103	(415) 558-8004	http://www.bossahome.com	37.777136	-122.412627
Bai Thong	298 Gough St	94102	(415) 863-9335	http://baithongthaisf.com	37.775929	-122.422482
Buca di Beppo Italian Restaurant	855 Howard St	94103	(415) 543-7673	http://www.bucadibeppo.com	37.78216	-122.403833
Bob's Donut and Pastry Shop	1621 Polk St	94109	(415) 776-3141	http://www.bobsdonuts.com	37.791836	-122.421016
Baker and Banker	1701 Octavia St	94109	(415) 351-2500	http://www.bakerandbanker.com	37.787982	-122.426994
Bissap Baobab	3372 19th St	94110	(415) 826-9287	http://www.bissapbaobab.com	37.760301	-122.418766
Belmar Lagallinita Meat Market	2989 24th St	94110	(415) 826-4600		37.752592	-122.41175
Beach Chalet Brewery and Restaurant	1000 Great Hwy	94121	(415) 386-8439	http://www.beachchalet.com	37.769281	-122.510467
Blu Restaurant	747 Market St	94103	(415) 633-3966	http://www.blurestaurant.com/sf	37.786665	-122.404478
Brandy Ho's Hunan Food	217 Columbus Ave	94133	(415) 788-7527	http://www.brandyhos.com	37.797251	-122.405874
Bubba Gump Shrimp Co Market	Pier 39	94133	(415) 397-9433	http://www.bubbagump.com	37.810726	-122.410411
Bok Ssam	88 Bartlett St	94110	(415) 439-0112	http://www.bokssam.com	37.756015	-122.419999
Beard Papa Sweets Cafe	99 Yerba Buena Ln	94103	(415) 978-9972	http://www.beardpapasf.com	37.785462	-122.404077
Bruno's	2389 Mission St	94110	(415) 550-7455	http://www.brunossf.com	37.758931	-122.418956
Beachside Cafe	4300 Judah St	94122	(415) 682-4961	http://www.javabeachsf.com/beachside	37.76042	-122.508201
Barracuda Japanese Restaurant	2251 Market St	94114	(415) 558-8567	http://www.barracudasushi.com	37.764878	-122.43192
Bubble Lounge	714 Montgomery St	94111	(415) 434-4204	http://www.bubblelounge.com/san-francisco	37.795852	-122.403301
Bistro Boudin	160 Jefferson St	94133	(415) 928-1849	http://www.boudinbakery.com	37.808435	-122.414967
Bouche	603 Bush St	94108	(415) 956-0396	http://www.bouchesf.com	37.790257	-122.407264
Bottle Cap	1707 Powell St	94133	(415) 529-2237	http://www.bottlecapsf.com	37.800472	-122.410969
Bar Agricole	355 11th St	94103	(415) 355-9400	http://www.baragricole.com	37.771334	-122.412988
Bun Mee	2015 Fillmore St	94115	(415) 800-7696	http://www.bunmee.co	37.788187	-122.433754
B. Patisserie	2821 California St	94115	(415) 440-1700	https://www.facebook.com/b.patisserie	37.787986	-122.440842
Bar Tartine	561 Valencia St	94110	(415) 487-1600	http://www.bartartine.com	37.763963	-122.421782
Barrel Head Brewhouse	1785 Fulton St	94117	(415) 745-1570	http://www.barrelheadsf.com	37.775765	-122.446145
Benu	22 Hawthorne St	94105	(415) 685-4860	http://www.benusf.com	37.785517	-122.399096
Bi-Rite Market	550 Divisadero St	94117	(415) 551-7900	http://www.biritemarket.com	37.77479	-122.437556
Bar Crudo	655 Divisadero St	94117	(415) 409-0679	http://www.barcrudo.com	37.775656	-122.438017
Beretta	1199 Valencia St	94110	(415) 695-1199	http://www.berettasf.com	37.753774	-122.420783
Blue Barn Gourmet	2105 Chestnut St	94123	(415) 441-3232	http://www.bluebarngourmet.com	37.800548	-122.437988
Bi-Rite Creamery	3692 18th St	94110	(415) 626-5600	http://biritecreamery.com	37.761492	-122.425755
Blue Bottle Coffee Kiosk	315 Linden St	94102	(415) 252-7535	http://www.bluebottlecoffee.net	37.776361	-122.42323
Beast and the Hare	1001 Guerrero St	94110	(415) 821-1001	http://www.beastandthehare.com	37.755097	-122.423088
Bigfoot Lodge	1750 Polk St	94109	(415) 440-2355	http://www.bigfootlodge.com	37.793047	-122.421077
Brick and Mortar Music Hall	1710 Mission St	94103	(415) 800-8782	http://brickandmortarmusic.com	37.7697	-122.420292
Big	761 Post St	94109		http://big-san-francisco.com	37.787519	-122.414293
Bacon Bacon	205A Frederick St	94117	(415) 571-8516	http://www.baconbaconsf.com	37.767152	-122.446693
Boudin Sourdough Bakery and Cafe	3251 20th Ave	94132	(415) 564-1849	http://www.boudinbakery.com	37.728742	-122.47677
Broken Record	1166 Geneva Ave	94112	(415) 963-1713	http://www.brokenrecordsanfrancisco.com	37.714403	-122.436897
Brenda's French Soul Food	652 Polk St	94102	(415) 345-8100	http://www.frenchsoulfood.com	37.782859	-122.419052
Boogaloos	3296 22nd St	94110	(415) 824-4088	http://www.boogaloossf.com	37.755412	-122.42084
Black Horse London Pub	1514 Union St	94123	(415) 928-2414	http://sfblackhorsepub.com	37.798567	-122.424683
Bakers Wholesale	500 Florida St	94110	(415) 522-5500	http://www.panoramabaking.com	37.762887	-122.411356
Blue Bottle Cafe	66 Mint St	94103	(415) 495-3394	http://bluebottlecoffee.net	37.782426	-122.40766
Bar Bambino	2931 16th St	94103	(415) 701-8466	http://www.barbambino.com	37.765074	-122.418243
Cafe Que Tal	1005 Guerrero St	94110	(415) 282-8855		37.754988	-122.423069
Caffe Dmelanio Gourmet Coffee Co.	1314 Ocean Ave	94112	(415) 333-3665	http://www.caffemelanio.com	37.72415	-122.45675
Cafe Majestic	1500 Sutter St	94109	(415) 441-1280	http://www.cafemajesticsf.com	37.787225	-122.425273
Cafe De Paris-Lentrecote	2032 Union St	94123	(415) 931-5006	http://www.cafedeparislentrecote.com	37.797498	-122.432679
Caffe Moda	650 Townsend St	94103	(415) 255-0628		37.7786	-122.42
Cafe Madeleine	300 California St	94104	(415) 362-3332	http://www.cafemadeleinesf.com	37.793289	-122.400149
California Golden Cookies	255 Kearny St	94108	(415) 956-3070		37.790617	-122.404041
Cafe Buena Vista	Harrison St	94110	(415) 777-4709		37.755834	-122.412221
Cafe Bistro	865 Market St	94103	(415) 977-5155		37.783795	-122.407606
Cafe Enchante	6157 Geary Blvd	94121	(415) 251-9136	http://www.cafeenchante.com	37.779895	-122.485597
Cable Car City Pub and Cafe	1 Hallidie Plz	94102	(415) 398-7600	http://www.cablecarpub.com	37.784182	-122.408379
Caffe Museo	151 3rd St	94103	(415) 357-4500	http://www.caffemuseo.com	37.785725	-122.401046
Cafe Art Bar	Laguna St	NA	(415) 763-5183	http://www.tbar.com.au	37.776377	-122.426171
Cassis Restaurant	2101 Sutter St	94115	(415) 440-4500	http://www.restaurantcassis.com	37.78578	-122.434994
Cafe Zazo	64 14th St	94103	(415) 626-5555	http://www.cafezazo.com	37.768653	-122.414823
Caffe D' Amore	700 4th St	94107	(415) 344-0098		37.776918	-122.394846
Carl's Jr.	4 Drumm St	94111	(415) 391-7780		37.795929	-122.40053
Caffe Sapore	790 Lombard St	94133	(415) 474-1222	http://www.saporecatering.com	37.80273	-122.414546
Cafe Du Soleil	345 3rd St	94107	(415) 699-6154	http://www.cafedusoleilsoma.com	37.783087	-122.398169
Calzone's Pizza Cucina	430 Columbus Ave	94133	(415) 397-3600	http://www.calzonesf.com	37.799027	-122.408297
Cafe Cole	609 Cole St	94117	(415) 668-7771	http://www.cafecole.com	37.769266	-122.45073
Casey's Pizza	231 Sansome St	94104	(650) 395-8494	http://caseyspizzas.com	37.792514	-122.401111
Cabin	1750 Polk St	94109	(415) 440-2355	http://www.cabinsf.com	37.793113	-122.421014
Cafe del Mare	5020 Geary Blvd	94118			37.780772	-122.4732
Cako	135 4th St	94103	(888) 262-4386	http://www.creperiesaintgermain.com	37.784284	-122.403569
Caffe D' Amore	3463 16th St	94114	(415) 864-2965		37.764433	-122.430097
Caffe Pascucci	170 King St	94107	(415) 957-1100	http://www.caffe-pascucci.com	37.778695	-122.39141
Caffe Terzetto	1560 3rd St	94158	(415) 503-1854	http://www.caffeterzetto.com	37.769154	-122.38957
Cafe 24	600 16th St	94158	(415) 514-4114	http://www.missionbayfoods.com/24	37.766916	-122.392433
Caffe Amici Espresso	550 15th St	94103	(415) 864-1040	http://www.caffeamiciespresso.com	37.767337	-122.406202
Cako	865 Market St	94103	(415) 369-9346	http://www.cako.com	37.784478	-122.406978
Cafe Ethiopia	878 Valencia St	94110	(415) 285-2728	http://www.cafe-ethiopia.com	37.758876	-122.421399
Cafe Dior at AAU	625 Polk St	94102	(415) 409-1742		37.78245	-122.41905
Cafe 55	55 Stockton St	94108			37.786564	-122.406454
Caffe Fiore	3599 24th St	94110	(415) 642-4822	http://www.caffefioresf.com	37.751911	-122.42277
Cantina	580 Sutter St	94102	(415) 398-0195	http://www.cantinasf.com	37.78917	-122.409904
Caffe Moda	699 8th St	94103	(415) 255-0628	http://zynga.com	37.770636	-122.403968
Cafe Francisco	2161 Powell St	94133	(415) 397-2602	http://www.cafefrancisco.com	37.804763	-122.411881
Cafe Sadko	2229 Clement St	94121	(415) 666-3420	http://www.cafe-sadko.com	37.782058	-122.483189
Carlin's Cafe	298 Valencia St	94103	(415) 626-6292		37.768205	-122.422314
Cafe Coco	4201 Geary Blvd	94118	(415) 750-1898		37.780872	-122.464331
Cafe At The Opera House	410 S Van Ness Ave	94103	(415) 861-8150		37.779071	-122.419664
Cafe Eight	8 Fishermans Wharf	94133	(415) 440-3994	http://www.aliotos.com	37.808344	-122.415867
Cafe Rocca	100 Pine St	94111	(415) 781-7333		37.79251	-122.398397
Cafe La Boheme	3318 24th St	94110	(415) 643-0481	http://www.cafelabohemesanfrancisco.com	37.752266	-122.41892
Cafe Golo	1602 Lombard St	94123	(415) 673-4656		37.800972	-122.428014
Cafe Kati	1963 Sutter St	94115	(415) 775-7313	http://www.cafekati.com	37.786103	-122.432603
Cava22	3239 22nd St	94110	(415) 642-7224	http://www.cava22sf.com	37.755246	-122.419682
Cafe Lombard	1424 Lombard St	94123	(415) 292-6300		37.801348	-122.425095
Cap'n Mike's Holy Smoke	1 Ferry Building	94111	(707) 585-2000	http://www.holysmokedsalmon.com	37.795197	-122.3930184
Cafe 444	444 Market St	94111	(415) 989-3244		37.791521	-122.398789
Castro Cheesery	427 Castro St	94114	(415) 552-6676	http://www.castrocheesery.com	37.762083	-122.435045
Caffe Del Sole	4342 California St	94118	(415) 386-1800	http://www.caffedelsolesf.net	37.785167	-122.464135
Capitol Kim Tar Restaurant	758 Pacific Ave	94133	(415) 956-2218	http://www.goldenkimtar.com	37.796855	-122.407936
Castagnola's Restaurant	286 Jefferson St	94133	(415) 776-5015	http://www.castagnolas.com	37.808088	-122.417269
Cafe Du Louvre	1032 Clement St	94118	(415) 831-4597		37.782815	-122.470232
Castillo Express	3473 25th St	94110	(415) 285-3489		37.750428	-122.420082
Calmoon Bakery	2128 Mission St	94110	(415) 864-2440	http://www.calmoonbakery.usdirectory.com	37.762911	-122.419582
Cafe Du Nord	2174 Market St	94114	(415) 861-5016	http://www.cafedunord.com	37.766539	-122.430426
Canton Dim Sum and Seafood Restaurant	655 Folsom St	94107	(415) 495-3064	http://www.cantonsf.com	37.78451	-122.397918
Canela Bistro Bar	2272 Market St	94114	(415) 552-3000	http://www.canelasf.com	37.764937	-122.432431
Cafe Delight Bakery	44 Del Monte St	94112	(415) 989-5688		37.715973	-122.443592
Capital One 360 Café	101 Post St	94108	(415) 248-4920	http://cafes.capitalone360.com/san_francisco	37.788779	-122.403823
Caffe Malvina	1600 Stockton St	94133	(415) 391-1290		37.800596	-122.409098
Cajun House	308 5th Ave	94118	(415) 340-3180	http://www.cajunhousesf.com	37.782656	-122.463256
Cafe Dolci	740 Market St	94102	(415) 392-9222	http://www.cafedolci.webs.com	37.787108	-122.404323
Cake Coquette	1501 Cortland Ave	94110	(415) 641-0200	http://www.cakecoquette.com	37.739046	-122.41385
Cafe Venue	67 5th St	94103	(415) 546-1144	http://www.cafevenue.com	37.783161	-122.4069
Cafe Bean	800 Sutter St	94109	(415) 928-0888	http://www.cafebeansf.com	37.788706	-122.413692
Cat Club	1190 Folsom St	94103	(415) 703-8964	http://www.sfcatclub.com	37.775353	-122.409881
Calabria Bros	2249 17th St	94103	(415) 863-1213	http://www.calabriabrosdeli.com	37.764577	-122.40627
Campton Place	340 Stockton St	94108	(415) 955-5555	http://www.camptonplacesf.com	37.789088	-122.406692
Cafe Mystique	464 Castro St	94114	(415) 865-9963	http://www.cafe-mystique.com	37.761568	-122.435106
Cafe 101	101 Henry Adams St	94103	(415) 431-0705	http://bestbeverage.com	37.76843	-122.403714
Cali Pho Nia	1000 Clement St	94118	(415) 221-7111	http://phocaliphonia.com	37.78277	-122.469857
California Pizza Restaurant	559 35th Ave	94121	(415) 775-2525		37.77849	-122.49535
Café Claude Marina	2120 Greenwich St	94123	(415) 375-9550	http://www.cafeclaude.com	37.799199	-122.435498
Cafe Sinfonia	465 Grove St	94102	(415) 864-4040	http://www.cafesf.com	37.77754	-122.424168
Cafe Isabella	1414 Taylor St	94133	(415) 378-3241		37.795395	-122.41323
California View Cafe	610 California St	94108	(415) 433-0115		37.79273	-122.4046
Camp BBQ	4014 Geary Blvd	94118	(415) 387-1378	http://www.campbbqsf.com	37.781283	-122.462513
Cafe Vivoli	201 Pine St	94104	(415) 772-9191	http://www.cafevivoli.com	37.79219	-122.399861
Cafe Le	2895 Van Ness Ave	94109	(415) 771-6353		37.802191	-122.424857
Caffe Macaroni	59 Columbus Ave	94111	(415) 956-9737	http://www.caffemacaroni.com	37.796189	-122.404204
Caffe Bianco	39 Sutter St	94104	(415) 421-2091	http://www.biancoscatering.com	37.790054	-122.401206
Cafe Amir	158 Beaver St	94114	(415) 863-8080		37.765093	-122.436629
Cazadores Mexican Food	2455 Noriega St	94122	(415) 681-7795		37.753505	-122.490087
Capricorn Coffees	353 10th St	94103	(415) 621-8500	http://www.capricorncoffees.com	37.772244	-122.41187
Cafe Sorriso	1501 Washington Ave	94109	(510) 351-3605		37.793703	-122.4179779
Cafe Me	500 Washington St	94111	(415) 288-8628	http://www.cafeme.net	37.795794	-122.401924
California Grind	5501 California St	94121	(415) 751-5885		37.784174	-122.476575
Cafe Gratitude	1336 9th Ave	94122	(415) 683-1346	http://www.cafegratitude.com	37.763337	-122.466157
Cafe Buon Giorno	100 Pine St	94111	(415) 283-4777	http://www.cafe-buongiorno-sf.com	37.792405	-122.398939
Cafe Reina	51 Cambon Dr	94132	(415) 587-2233	http://www.cafereinasf.com	37.717686	-122.474244
Cafe Bellini	235 Powell St	94102	(415) 956-5101	http://www.cafebellinisf.com	37.786926	-122.40818
Caffe Greco	423 Columbus Ave	94133	(415) 397-6261	http://www.caffegreco.com	37.798952	-122.408428
Cafeto	111 Richland Ave	94110	(415) 970-9090		37.736129	-122.42546
Caffe Ida	303 Sacramento St	94111	(415) 956-1677	http://www.caffeida.com	37.79434	-122.39947
Cavalli Cafe	1441 Stockton St	94133	(415) 421-4219	http://cavallicafe.com	37.799245	-122.408992
Cafe Rosso	1600 Holloway Ave	94132	(415) 405-0923		37.722342	-122.480406
Cafe Montechristo	2101 Geneva Ave	94134	(415) 334-2326		37.708686	-122.420703
Cake House	5169 Mission St	94112	(415) 333-0205	http://www.cinderellacakes.com	37.715875	-122.441203
Cafe Focaccia	55 2nd St	94105	(415) 495-3521	http://www.focacciacatering.com/home.html	37.788672	-122.400551
Carmel Pizza Company	2826 Jones St	94133	(415) 676-1185	http://www.carmelpizzaco.com	37.807453	-122.417283
Casey's Pizza	100 Spear St	94105	(650) 395-8494		37.792434	-122.394069
Cathay House	718 California St	94108	(415) 982-3388		37.79246	-122.406091
Carmen's Restaurant	40 Embarcadero	94107	(415) 222-6169	http://www.carmensontheembarcadero.com	37.781903	-122.387916
Cantina Pizza	801 Font Blvd	94132			37.723653	-122.483332
Capay Organic	1 Ferry Building	94111	(415) 391-2223		37.797899	-122.400695
Caffe Como	2550 Van Ness Ave	94109	(415) 529-2615	http://www.caffe-como.com	37.799225	-122.423925
Cafe Kuleto	221 Powell St	94102	(415) 397-7720	http://www.kuletos.com	37.786697	-122.4082
Capurro's	498 Jefferson St	94109	(415) 771-9371	http://www.capurros.com	37.807695	-122.420594
Cafe Du Soleil	200 Fillmore St	94117	(415) 934-8637	http://www.baybread.com/soleil.php	37.771299	-122.430151
Cafe Du Jour	835 Geary St	94109	(415) 928-5888		37.786098	-122.417
Caffe Roma Coffee Roasting Co.	885 Bryant St	94103	(415) 296-7662	http://www.cafferoma.com	37.774534	-122.404214
Carnelian by the Bay	1 Ferry Plz	94111	(415) 391-2660	http://www.carnelianbythebay.com	37.795723	-122.392134
Cafe Bellini	500 Parnassus Ave	94143	(415) 682-8038	http://www.cafebellinisf.com	37.763308	-122.458746
Cal-Divis Market	2794 California St	94115	(415) 440-1295		37.788157	-122.440338
Casa Sanchez Foods	53 Camellia Ave	94112	(415) 586-2400	http://www.casasanchezfoods.com	37.7295	-122.432246
California Cookout Stands	24 Willie Mays Plz	94107			37.77851	-122.390417
Cafe Venue Montgomery	218 Montgomery St	94104	(415) 989-1144	http://www.cafevenue.com	37.791126	-122.402388
Cafe La Onda	3159 16th St	94103	(415) 431-7516		37.764683	-122.423336
California Shellfish Co.	420 Jefferson St	94109	(415) 775-9241		37.807894	-122.419361
Cako Creamery	101 4th St	94103	(415) 348-8884		37.784468	-122.403995
Caffe La Piazza	700 Columbus Ave	94133	(415) 392-9290		37.801187	-122.411338
Cafe Claude	425 Bush St	94108	(415) 392-3505	http://www.cafeclaude.com	37.790629	-122.404576
Cafe Grill Bar	4995 Mission St	94112	(415) 334-7781	http://www.cafegrillbarvietnamese.com	37.718574	-122.439309
CatHead's BBQ	268 Bush St	94104	(415) 599-6298	http://catheadsbbq.com	37.791139	-122.401792
Cafe Bella Vista	2598 Harrison St	94110	(415) 641-6195		37.75596	-122.412297
Cafe Leah	245 Market St	94105	(415) 543-5409	http://www.cafeleah.com	37.792763	-122.396841
Cafe 44	111 Mason St	94102	(415) 474-5576		37.784585	-122.409755
Cafe Meuse	1400 Pacific Ave	94109	(415) 928-6674	http://www.cafemeuse.com	37.795503	-122.418403
Cafe Macondo	3159 16th St	94103	(415) 431-7516		37.76606	-122.411911
Casa Mexicana	180 Church St	94114	(415) 551-2272		37.768087	-122.429135
Carl's Jr.	10 United Nations Plz	94102	(415) 431-3905	http://www.carlsjr.com	37.780362	-122.412996
Cafe Bellini	865 Market St	94103	(415) 348-1075		37.784312	-122.407272
Caffe Union	1830 Union St	94123	(415) 673-4119	http://unionstreetshop.com/pages/storepages/caffe_union.html	37.79795	-122.429503
Cafe Bellatrix	325 Mason St	94102	(415) 346-8228		37.786546	-122.409909
California Vintage Wine Scty	1200 Folsom St	94103	(415) 553-7114		37.775076	-122.410566
Castro Tarts	564 Castro St	94114	(415) 861-3268		37.759892	-122.435
Capellino Sauces	62 Rossi Ave	94118	(415) 921-6383		37.778468	-122.456004
Cafe Bellini	28 Cyril Magnin St	94102	(415) 956-9033	http://www.cafebellinisf.com	37.784895	-122.408421
Cafe Phoenix	1234 Indiana St	94107	(415) 282-9675	http://www.cafephoenix.org	37.75475	-122.391045
Caskhouse	3853 24th St	94114	(415) 834-5005	http://www.caskhousesf.com	37.751662	-122.428689
Caruso's	335 Powell St	94102	(415) 397-7000	http://www.westinstfrancis.com/dining/carusos.cfm	37.787407	-122.40881
Caffe Delle Stelle	395 Hayes St	94102	(415) 252-1110	http://www.dellestelle.com	37.776847	-122.422865
Caffe Capriccio	2200 Mason St	94133	(415) 986-7475	http://www.caffecapriccio.com	37.803818	-122.413195
Cafe Bellini	17 Powell St	94102		http://www.cafebellinisf.com	37.785082	-122.407853
Cake Portraits By Joni Eisen	592 Pennsylvania Ave	94107	(415) 648-6740	http://www.jonieisen.com	37.758985	-122.393265
Cafe Encore	488 Post St	94102	(415) 433-6549	http://www.cafeencorellc.com	37.788218	-122.409768
Cafe Venue	67 5th Ave	94118	(415) 546-1144	http://cafevenue.com	37.7874463	-122.4637022
Candybar	1335 Fulton St	94117	(415) 673-7078	http://www.candybarsf.com	37.776672	-122.438807
Caffe Puccini	411 Columbus Ave	94133	(415) 989-7033		37.798881	-122.408311
Cafe Madeleine	Union Sq	94108	(415) 362-1713	http://www.cafemadeleinesf.com/index.html	37.786685	-122.405656
Caffe Cento	801 Powell St	94108	(415) 772-5032	http://fairmont.com	37.792048	-122.409107
Cafe Riko	550 15th St	94103	(415) 864-1040	http://www.cafe-buongiorno.com	37.767282	-122.40612
California Pizza Kitchen	53 3rd St	94103	(415) 278-0443	http://www.cpk.com	37.786901	-122.402671
Carl's Jr.	1 Hallidie Plz	94102	(415) 391-5799	http://www.carlsjr.com	37.784092	-122.408603
Cassava	3519 Balboa St	94121	(415) 640-8990	http://www.cassavasf.com	37.775707	-122.496596
Cable Car Corner	1099 Powell St	94108	(415) 362-5925		37.794702	-122.4098
Cafe Venice	3325 24th St	94110	(415) 643-3385		37.752054	-122.419695
Canto DO Brazil	41 Franklin St	94102	(415) 626-8727	http://www.cantodobrazilrestaurant.com	37.774879	-122.420951
Calon's Cocktails	3775 Mission St	94110	(415) 648-2909		37.736336	-122.424287
Cafe Fifty Two	52 Belden Pl	94104	(415) 433-5200		37.791294	-122.40379
Caffe Delucchi	500 Columbus Ave	94133	(415) 393-4515	http://www.caffedelucchi.com	37.799763	-122.40907
Cafe Cocomo Bar Grill and Night Club	650 Indiana St	94107	(415) 824-6910	http://www.cafecocomo.com	37.762249	-122.39172
Calvin's	568 Haight St	94117			37.771983	-122.431534
Caffe Cozzolino	300 Precita Ave	94110	(415) 285-6005	http://www.caffecozzolino1.ypgs.net	37.746724	-122.413415
Cafe Marlette	1500 Van Ness Ave	94109	(415) 441-4000	http://www.holidayinn.com	37.789582	-122.421985
Cafe Madeleine	149 New Montgomery St	94105	(415) 227-4077	http://www.cafemadeleinesf.com	37.786942	-122.399691
Castro Theatre	429 Castro St	94114	(415) 621-6120	http://www.castrotheatre.com	37.762028	-122.434822
Carmelina's Taqueria	500 Parnassus Ave	94143	(415) 502-1121		37.763308	-122.458746
Catch Isle	845 Market St	94103	(415) 882-1699	http://www.catchisle.com	37.784578	-122.406536
Cafe Verde	565 Green St	94133	(415) 393-9930		37.799436	-122.408542
Cafe 24 Fps	608 Geary St	94102	(415) 440-3437	http://www.adantehotel.com/24fps.htm	37.786748	-122.413338
Carl's Jr.	275 Battery St	94111	(415) 391-7780	http://www.carlsjr.com	37.793847	-122.400258
Canela	2227 Market St	94114	(415) 552-3000	http://www.canelasf.com	37.76531	-122.431532
Canaiolo	2234 Chestnut St	94123	(415) 567-6164		37.800475	-122.440035
Cafe Maha	1480 Larkin St	94109	(415) 956-3177		37.791535	-122.419155
Capannina Ristorante	1809 Union St	94123	(415) 409-8001	http://www.capanninasf.com	37.797861	-122.429135
Cafe Elena	1 Market Plz	94105	(415) 543-8933		37.793802	-122.394757
Cafe Infusion	829 Mission St	94103	(415) 808-0808	http://www.cafeinfusion.com	37.78421	-122.404491
Cafe Leah	77 Beale St	94105	(415) 543-8380	http://www.cafeleah.com	37.791806	-122.396322
Cafe Niebaum Coppola	916 Kearny St	94133	(415) 291-1700	http://www.cafecoppola.com	37.796531	-122.40514
Cafe Annalita	845 Howard St	94103	(415) 357-1060		37.782352	-122.403705
Cafe Valencia	1109 Valencia St	94110	(415) 824-7659		37.75489	-122.420868
Carlos Club	3278 24th St	94110	(415) 285-1512		37.75238	-122.418081
Cafe Abir	1300 Fulton St	94117	(415) 567-7654	http://www.dajanigroup.net	37.776921	-122.438325
Cafe Maritime	2417 Lombard St	94123	(415) 885-2530	http://www.cafemaritimesf.com	37.799085	-122.441342
Cafe Razzi	2565 3rd St	94107	(415) 920-7294	http://www.cafe-razzi.com	37.757069	-122.388014
Cafe Gratitude	160 14th St	94103	(415) 229-7768	http://cafegratitude.com/catering	37.768627	-122.416986
Cafe Sixteen	3170 16th St	94103	(415) 621-1539		37.764944	-122.422714
Cafe Troya	349 Clement St	94118	(415) 379-6000	http://www.troyasf.com	37.782955	-122.463089
Carbon	383 Bay St	94133	(415) 217-8882		37.805474	-122.413286
Cafe Clementine	257 3rd St	94103	(415) 357-9920	http://www.cafeclementinesf.com	37.784496	-122.399813
Casey's Pizza	750 Stanyan St	94117	(650) 395-8494	http://www.caseyspizzas.com	37.768182	-122.453272
Caffe Moda	635 8th St	94103	(415) 255-0628	http://caffemoda.com	37.770489	-122.404368
Caffe Cento	950 Mason St	94108	(415) 772-5000	http://www.fairmont.com/sanfrancisco/guestservices/restaurants/caffecento.htm	37.792325	-122.410723
Caffe Central	845 Market St	94103	(415) 348-1070		37.784598	-122.406485
Cafe St Jorge	3438 Mission St	94110	(415) 814-2028	http://www.cafestjorge.com	37.741673	-122.422578
Calabria Bros	4763 Mission St	94112	(415) 239-2555	http://calabriabrosdeli.com	37.722047	-122.436598
Cav Wine Bar	1666 Market St	94102	(415) 437-1770	http://www.cavwinebar.com	37.773562	-122.421516
Campus	2241 Chestnut St	94123	(415) 896-4110	http://www.campussf.com	37.800231	-122.440217
Carmen's Restaurant	40 Pier	94107	(415) 222-6169	http://www.sb40sf.com	37.78153	-122.387322
Castro	Castro St	94114	(415) 861-3268	http://www.castrocountyfair.org	37.761764	-122.435011
Caffe Trieste	609 Vallejo St	94133	(415) 982-2605	http://www.caffetrieste.com	37.798698	-122.407337
Cafe Lavie	514 Octavia St	94102	(415) 621-6877		37.776873	-122.424624
Cathay Express Restaurant	720 14th St	94114	(415) 431-3229		37.767751	-122.42936
California Academy of Sciences	55 Music Concourse Dr	94118	(415) 379-8000	http://www.calacademy.org	37.769999	-122.466314
Cafe Buon Giorno	550 15th St	94103	(415) 864-1040	http://www.cafe-buongiorno.com	37.767349	-122.406212
Castro Coffee	45 Church St	94114	(415) 863-8080	http://www.georgelazar.com	37.769741	-122.429062
Cafe Mums	1800 Sutter St	94115	(415) 931-6986	http://www.mumssf.com	37.786592	-122.430266
Caffe Macaroni Sciue Sciue	124 Columbus Ave	94133	(415) 217-8400	http://www.caffemacaroni.com	37.79663	-122.404653
Catering With Style	2800 Bryant St	94110	(415) 285-8863	http://cateringwithstyle.com	37.749487	-122.408882
Cafe XO	1799 Church St	94131	(415) 826-3535	http://www.cafexo.com	37.742209	-122.426474
California Bistro and Pizza	1500 California St	94109	(415) 817-1633		37.790871	-122.419195
Casa Sanchez	250 Napoleon St	94124	(415) 282-2400	http://www.casasanchezfood.com	37.746757	-122.400908
Cafe Sophie	3463 16th St	94114	(415) 529-2972	http://www.cafesophiesf.com	37.764398	-122.43002
Caffe Ambrosia	14 Trinity Pl	94104	(415) 362-0538		37.790281	-122.402613
Cafe Seventy8	78 29th St	94110	(415) 970-2233		37.7441	-122.421808
Castro Country Club	4058 18th St	94114	(415) 552-6102	http://www.castrocountryclub.org	37.761067	-122.434171
Candle Fuel Co.	135 Townsend St	94107	(415) 225-3041		37.780509	-122.390631
Capps Corner	1600 Powell St	94133	(415) 989-2589	http://www.cappscorner.com	37.799409	-122.410536
Cafe Graditude	2211 Mission St	94110	(415) 285-7550		37.761597	-122.419246
Caffe Pazzo	2 Henry Adams St	94103	(415) 487-1509	http://www.caffepazzo.com	37.769595	-122.40408
Cafe 450 Eurest Dining	450 Golden Gate Ave	94102	(415) 621-0874	http://www.cgnad.com	37.781132	-122.417968
Cafe Bello	2885 Diamond St	94131	(415) 585-3457	http://www.bellocoffee.com	37.733756	-122.433961
Campanula	701 Union St	94133	(415) 829-7766	http://www.campanulasf.com	37.800219	-122.410888
Caffe La Stazione	701 Pennsylvania Ave	94107	(415) 812-2539	http://www.facebook.com/caffelastazione	37.757506	-122.392932
Castle Club	823 Geary St	94109	(415) 673-4755		37.786291	-122.416856
Caffe Baonecci	516 Green St	94133	(415) 989-1806	http://www.caffebaonecci.com	37.799727	-122.407719
Cako	Union Sq	94102	(415) 895-2256		37.786266	-122.40832
Cafe Insalata	209 Jackson St	94111	(415) 398-4737		37.796857	-122.399897
Cafe Taboo	600 York St	94110	(415) 341-1188	http://www.cafetaboo.net	37.761697	-122.409329
Caramba Mexican Food	78 2nd St	94105	(415) 543-8226	http://www.carambasf.com	37.788256	-122.400179
California Smart Foods	2565 3rd St	94107	(415) 826-0449		37.756604	-122.387956
Cafe Madeleine	43 Ofarrell St	94108	(415) 362-1713	http://www.cafemadeleinesf.com	37.786726	-122.405399
Cafe Venue	721 Market St	94103	(415) 546-1144	http://www.cafevenue.com	37.786854	-122.403937
Cafe Liliane	550 15th St	94103	(415) 864-1040		37.767337	-122.406202
Caferata Piccola Cucina	659 Columbus Ave	94133	(415) 392-7544	http://www.piazzapellegrini.com	37.800702	-122.410826
Cable Car Coffee Co.	900 Market St	94102	(415) 399-9656	http://www.sfcablecar.com	37.784427	-122.408186
Cako Bakery	211 Ofarrell St	94102	(415) 404-7303	http://www.cakobakery.com	37.786357	-122.408316
Cafe Bebe	1338 Franklin St	94109	(415) 928-8999		37.786959	-122.423355
Caffe Dolci	3101 Fillmore St	94123	(415) 563-8434	http://www.mycaffedolcisf.com	37.798116	-122.4359
Cable Car Pizza	3840 Geary Blvd	94121	(415) 752-8800	http://cablecarpizza.com	37.781431	-122.460737
Cafe 8	360 Jefferson St	94133	(415) 440-3994		37.808009	-122.418254
Caffe Roma Coffee Roasting Co.	526 Columbus Ave	94133	(415) 296-7942	http://www.cafferoma.com	37.799917	-122.409399
Cafe La Flore	1340 Irving St	94122	(415) 504-6798	http://www.cafelaflore.com	37.763914	-122.472442
Casa Hookah	4724 Geary Blvd	94118	(415) 387-7300	http://www.CasaHookah.com	37.780896	-122.470049
Cali Pho Nia Vietnamese Bistro	2428 San Bruno Ave	94134	(415) 508-1918	http://phocaliphonia.com/index2.html	37.731698	-122.40552
Cairo Nights	829 Geary St	94109	(415) 931-6930	http://www.hookahloungesf.com	37.786159	-122.417188
Cafe Fresco at Hotel 480	480 Sutter St	94108			37.789337	-122.408306
Cafe Zoetrope	916 Kearny St	94133	(415) 291-1700	http://www.cafecoppola.com/cafezoetrope	37.796546	-122.405149
Cafe Prague	424 Merchant St	94111	(415) 627-7464	http://www.cafepraguesf.com	37.795505	-122.400752
Cafe Mason	320 Mason St	94102	(415) 544-0320	http://www.cafemason.com	37.786568	-122.409673
Causwells	2346 Chestnut St	94123	(415) 447-6081	http://causwells.com	37.800101	-122.442008
Cafe Bunn Mi	417 Clement St	94118	(415) 668-8908		37.78294	-122.463679
Cafe Gratitude	2400 Harrison St	94110	(415) 824-4652	http://www.cafegratitude.com	37.758923	-122.412631
Cafe Claude	2120 Greenwich St	94123	(415) 375-9550	http://www.cafeclaude.com	37.799166	-122.435114
California Crisp	3251 20th Ave	94132	(415) 564-4254	http://www.californiacrisp.com	37.728441	-122.476337
Cafe De La Presse	352 Grant Ave	94108	(415) 398-2680	http://www.cafedelapresse.com	37.790449	-122.40545
Cafe Zitouna	1201 Sutter St	94109	(415) 673-2622	http://www.sfcafezitouna.com	37.787702	-122.420162
Campton Place Restaurant	340 Stockton St	94108	(415) 955-5555	http://www.camptonplacesf.com	37.789077	-122.406778
Canteen	817 Sutter St	94109	(415) 928-8870	http://www.sfcanteen.com	37.788458	-122.413869
Capital Restaurant	839 Clay St	94108	(415) 397-6269	http://capitalsf.com	37.794098	-122.40706
Capo's	641 Vallejo St	94133	(415) 986-8998	http://www.sfcapos.com	37.798594	-122.408454
Cafe Flore	2298 Market St	94114	(415) 621-8579	http://www.cafeflore.com	37.764541	-122.432984
Cafe La Flore	1032 Clement St	94118	(415) 386-2814	http://www.cafelaflore.com	37.782688	-122.470515
Cafe La Taza	4230 18th St	94114	(415) 525-4921	http://www.cafelataza.com	37.76091	-122.436709
Caffe Sport	574 Green St	94133	(415) 981-1251	http://www.caffe-sport.com	37.799658	-122.408604
Caffe Moda	160 7th St	94103	(415) 255-0628	http://caffemoda.com	37.778315	-122.410294
Caffe Centro	102 S Park St	94107	(415) 882-1500	http://www.caffecentro.com	37.781709	-122.394229
Cafe Pescatore	2455 Mason St	94133	(415) 561-1111	http://www.cafepescatore.com	37.806308	-122.413785
Cafe Destijl	1 Union St	94111	(415) 291-0808	http://www.destijl.com	37.801481	-122.400404
Casa Sanchez Restaurant	2778 24th St	94110	(415) 695-0700	http://www.casasanchez.com	37.753037	-122.40782
Cafe Bakery and Restaurant	1365 Noriega St	94122	(415) 661-6116	http://sanfrancisco.menupages.com	37.754075	-122.478274
Cafico Cafe and Bakery	1475 Market St	94103	(415) 552-4449		37.775617	-122.418606
Cafe Algiers	50 Beale St	94105	(415) 512-8681	http://www.bechtel.com	37.791657	-122.396501
Cafe Muse	785 8th Ave	94118	(415) 668-6873		37.773676	-122.465923
Cafe Tiramisu	28 Belden Pl	94104	(415) 421-7044	http://www.cafetiramisu.com	37.791189	-122.403652
Cafe Venue Leidesdorff	70 Leidesdorff St	94104	(415) 576-1144	http://www.cafevenue.com	37.792682	-122.401843
Cafe La Taza	2475 Mission St	94110	(415) 824-7717	http://www.cafelataza.com	37.75746	-122.418771
Casa Mexicana II	3917 24th St	94114	(415) 648-0477		37.751401	-122.430165
Cafe Jacqueline	1454 Grant Ave	94133	(415) 981-5565	http://www.cafe-istanbul.net/home.htm	37.80037	-122.407461
Cafe Murano	1777 Steiner St	94115	(415) 771-0888	http://www.cafemurano.com	37.785596	-122.434875
Cafe Honolulu	888 Stockton St	94108	(415) 982-6688		37.793923	-122.407784
Cafe Claude	7 Claude Ln	94108	(415) 392-3505	http://www.cafeclaude.com	37.790305	-122.404285
Cafe Chanta	587 Post St	94102	(415) 346-6161	http://www.cafechanta.com	37.78784	-122.411406
Cellarmaker Brewing Co.	1150 Howard St	94103	(415) 863-3940	http://www.cellarmakerbrewing.com	37.777182	-122.410714
Chico's Grill	3771 Mission St	94110	(415) 970-0375	http://www.chicosgrillsf.com	37.736379	-122.424248
Crepes A Go Go	350 11th St	94103	(415) 503-1294		37.771144	-122.413322
Chairman Bao	670 Larkin St	94109	(415) 813-8800	http://bit.ly/ChairmanBaoTruckSchedule	37.779514	-122.405228
Coffee Shop	77 Dolores Ter	94110	(415) 351-9641		37.76259	-122.42582
Comida Yucatan	294 Turk St	94102	(415) 931-3500	http://www.comidayucatan.com	37.782873	-122.413881
Ciaobella Gelato	2211 Quesada Ave	94124	(415) 824-3000	http://www.ciaobellagelato.com	37.738584	-122.400733
Cello	75 1st St	94105	(415) 357-1122	http://www.cellokebobpizza-sanfrancisco.com	37.790259	-122.397905
Cobb's Comedy Club	915 Columbus Ave	94133	(415) 928-4320	http://www.cobbscomedy.com	37.802893	-122.414204
Cultive Frozen Yogurt	1998 Union St	94123	(415) 345-8865	http://www.cultiveyogurt.com	37.797615	-122.432093
Connecticut Yankee	100 Connecticut St	94107	(415) 552-4440	http://www.theyankee.com	37.765032	-122.397859
Cup	6 Monterey Blvd	94131	(415) 508-9573		37.732429	-122.434761
Crepes A Go Go	1220 Polk St	94109	(415) 409-4646	http://www.crepes-a-gogo.com	37.788116	-122.420085
Cocobang	550 Taylor St	94102	(415) 292-5144	http://sfstation.com/app/redir.php?biid=4456&res=fed0cefe1551e26e4d2a60a501bdf585	37.787617	-122.411613
Citrus Club	1790 Haight St	94117	(415) 387-6366	http://www.citrusclubsf.com	37.769502	-122.451591
Coffee Break	4601 Geary Blvd	94118	(415) 933-6295		37.780726	-122.468673
Cervecería de MateVeza	3801 18th St	94114	(415) 273-9295	http://cerveceriasf.com	37.761269	-122.428442
Chaps Bar	1225 Folsom St	94103	(415) 255-2427	http://www.chapsbarsanfrancisco.com	37.774517	-122.41046
Chenery Park Restaurant	683 Chenery St	94131	(415) 337-8537	http://www.chenerypark.com	37.734364	-122.433552
Chef Ming's	295 Orizaba Ave	94132	(415) 333-8399		37.714112	-122.462833
Coriander Gourmet Thai	101 4th St	94103			37.784492	-122.403026
Cinnabar	397 Ellis St	94102	(415) 928-4288		37.784827	-122.412765
Crazy Crab'z	24 Willie Mays Plz	94107	(415) 972-2000	http://sanfrancisco.giants.mlb.com/sf/ballpark/index.jsp	37.778331	-122.390981
Craftsman and Wolves	746 Valencia St	94110	(415) 913-7713	http://craftsman-wolves.com	37.760894	-122.421555
Crepe and Curry	50 Drumm St	94111	(415) 772-9900	http://www.sedoparking.com/search/registrar.php?registrar=dotsterexpired&domain=CREPEANDCURRY.COM&site_id=4798	37.793965	-122.396367
Coca Cola Sign	Bryant St	94107			37.777769	-122.400484
Company Restaurant	1000 Guerrero St	94110	(415) 374-7479	http://companysf.com	37.755044	-122.423339
China Press	915 Grant Ave	94108	(415) 788-1189		37.79541	-122.406759
Centerplate Concession Stand	Candlestick Park	94124	(415) 656-4949	http://www.49ers.com	37.713437	-122.387619
Curbside Coffee	298 Spear St	94105			37.790104	-122.391027
Corkage Sake and Wine Shop	1304 Fulton St	94117	(415) 567-6503		37.77689	-122.438368
Christys Refreshments	406 Sawyer St	94134	(415) 334-7315		37.713098	-122.414557
Cowgirl Creamery	1 Ferry Building	94111	(415) 362-9354	http://www.cowgirlcreamery.com	37.795541	-122.393666
Country Sky	3321 Steiner St	94123	(415) 567-2888	http://countryskychinese.com	37.799884	-122.437801
Cold Stone Creamery	119 Ellis St	94102	(415) 989-0086	http://www.coldstonecreamery.com	37.785404	-122.408295
Cookhouse	253 Columbus Ave	94133	(415) 796-3757	http://www.cookhousesf.com	37.797613	-122.406286
Coronitas	3326 Mission St	94110	(415) 285-4555		37.743448	-122.421334
Chu Lin Restaurant	2428 Clement St	94121	(415) 668-6167		37.7822	-122.485
China House	2794 Diamond St	94131	(415) 333-1331		37.734689	-122.433912
Colombini Bistro	835 Hyde St	94109	(415) 447-8554	http://www.nobhillhotel.com/Dining/tabid/57/Default.aspx	37.788668	-122.417048
Cybelles Pizza Restaurant	3782 24th St	94114	(415) 285-3212	http://www.cybellespizzasf.com	37.751771	-122.427065
Chabaa Thai Cuisine	2123 Irving St	94122	(415) 753-3347	http://www.chabaathaicuisinesf.com	37.763287	-122.480723
Chaat Cafe Express	1 Montgomery St	94104	(415) 391-2082	http://www.chaatcafes.com	37.789187	-122.40222
Courtyard Bar and Restaurant	2436 Clement St	94121	(415) 387-7616	http://www.indiaclayoven.com	37.782044	-122.485575
CHA Am Thai Restaurant	4621 Lincoln Way	94122	(415) 566-5671		37.764018	-122.507732
Cordon Bleu Vietnamese Restaurant	1574 California St	94109	(415) 673-5637	http://www.fivespicechicken.com	37.790692	-122.420244
Crepe Vine	624 Irving St	94122	(415) 681-5858	http://www.crepevine.com	37.764195	-122.464603
Clement Street Farmers Market	Clement St	94118		http://www.agriculturalinstitute.org/clement-st	37.783131	-122.461123
Culinary Cafeteria	50 Phelan Ave	94112	(415) 239-3000	http://www.ccsf.edu	37.723788	-122.45167
Cheese Plus	2001 Polk St	94109	(415) 921-2001	http://www.cheeseplus.com	37.79513	-122.421772
Coffee Cabin	899 Hyde St	94109	(415) 474-8308		37.789087	-122.417032
Chuis Cafe	501 Balboa St	94118	(415) 350-4431		37.777114	-122.46422
Chabela Restaurant	1801 Haight St	94117	(415) 751-6204	http://restaurantslive.com	37.76922	-122.452079
